[
  {
    "區別": "中正區",
    "detailAddress": "台北市中正區忠孝東路二段6號2樓",
    "姓名": "周正雄",
    "性別": "男",
    "生年月日": "0310930",
    "education": "中山",
    "title": "華山周牙醫",
    "會員身份": "A",
    "opentime" :"下午5:00-下午9:00",
    "coordinates": {"latitude": 25.0437119,"longitude": 121.5270099}
  },
  {
    "區別": "大安區",
    "detailAddress": "台北市大安區敦化南路一段289號2樓之4",
    "姓名": "洪輝雄",
    "性別": "男",
    "生年月日": "0330906",
    "education": "北醫",
    "title": "信愛牙醫",
    "會員身份": "A",
    "opentime" :"下午5:00-下午9:00",
    "coordinates": {"latitude": 25.035684,"longitude": 121.5494799}
  },
  {
    "區別": "中正區",
    "detailAddress": "台北市中正區濟南路二段65號之1",
    "姓名": "許燕熊",
    "性別": "男",
    "生年月日": "0341121",
    "education": "中山",
    "title": "新欣牙醫",
    "會員身份": "A",
    "opentime" :"下午5:00-下午9:00",
    "coordinates": {"latitude": 25.0403227,"longitude": 121.5322287}
  },
  {
    "區別": "中山區",
    "detailAddress": "台北市中山區南京東路二段50號2樓",
    "姓名": "林久恩",
    "性別": "男",
    "生年月日": "0341002",
    "education": "北醫",
    "title": "哲全牙醫",
    "會員身份": "A",
    "opentime" :"下午5:00-下午9:00",
    "coordinates": {"latitude": 25.0517979,"longitude": 121.52967}
  },
  {
    "區別": "大同區",
    "detailAddress": "台北市大同區南京西路167巷3之3號2樓",
    "姓名": "黃芳遠",
    "性別": "男",
    "生年月日": "0350810",
    "education": "北醫",
    "title": "哲安牙醫",
    "會員身份": "A",
    "opentime" :"下午5:00-下午9:00",
    "coordinates": {"latitude": 25.0544799,"longitude": 121.5128151}
  },
  {
    "區別": "大同區",
    "detailAddress": "台北市大同區民生西路210號2樓",
    "姓名": "洪世榮",
    "性別": "男",
    "生年月日": "0300115",
    "education": "中山",
    "title": "南方牙醫",
    "會員身份": "A",
    "opentime" :"下午5:00-下午9:00",
    "coordinates": {"latitude": 25.0569429,"longitude": 121.5151079}
  },
  {
    "區別": "中山區",
    "detailAddress": "台北市中山區天祥路70號3樓",
    "姓名": "張嘉仁",
    "性別": "男",
    "生年月日": "0371006",
    "education": "中山",
    "title": "泰祺牙醫",
    "會員身份": "A",
    "opentime" :"下午5:00-下午9:00",
    "coordinates": {"latitude": 25.0623631,"longitude": 121.5208883}
  },
  {
    "區別": "大同區",
    "detailAddress": "台北市大同區大龍街183號",
    "姓名": "吳震鵬",
    "性別": "男",
    "生年月日": "0340505",
    "education": "北醫",
    "title": "吳震鵬牙醫",
    "會員身份": "A",
    "opentime" :"下午5:00-下午9:00",
    "coordinates": {"latitude": 25.069033,"longitude": 121.516001}
  },
  {
    "區別": "大同區",
    "detailAddress": "台北市大同區酒泉街88號1樓",
    "姓名": "李富雄",
    "性別": "男",
    "生年月日": "0310417",
    "education": "中山",
    "title": "李牙醫",
    "會員身份": "A",
    "opentime" :"下午5:00-下午9:00",
    "coordinates": {"latitude": 25.0719177,"longitude": 121.5146795}
  },
  {
    "區別": "大同區",
    "detailAddress": "台北市大同區延平北路三段115號2樓",
    "姓名": "郭景行",
    "性別": "男",
    "生年月日": "0320119",
    "education": "中山",
    "title": "美堅牙醫",
    "會員身份": "A",
    "opentime" :"下午5:00-下午9:00",
    "coordinates": {"latitude": 25.0682635,"longitude": 121.510947}
  },
  {
    "區別": "士林區",
    "detailAddress": "台北市士林區重慶北路四段49巷47號",
    "姓名": "陳國治",
    "性別": "男",
    "生年月日": "0380706",
    "education": "北醫",
    "title": "華國牙醫",
    "會員身份": "A",
    "opentime" :"下午5:00-下午9:00",
    "coordinates": {"latitude": 25.0811175,"longitude": 121.5109403}
  },
  {
    "區別": "松山區",
    "detailAddress": "台北市松山區長安東路二段215號5F-2",
    "姓名": "王明義",
    "性別": "男",
    "生年月日": "0350714",
    "education": "中山",
    "title": "明義牙醫",
    "會員身份": "A",
    "opentime" :"下午5:00-下午9:00",
    "coordinates": {"latitude": 25.0484092,"longitude": 121.5445221}
  },
  {
    "區別": "士林區",
    "detailAddress": "台北市士林區通河街119號",
    "姓名": "吳錦煌",
    "性別": "男",
    "生年月日": "0380310",
    "education": "高醫",
    "title": "永泰牙醫",
    "會員身份": "A",
    "opentime" :"下午5:00-下午9:00",
    "coordinates": {"latitude": 25.0806921,"longitude": 121.5215187}
  },
  {
    "區別": "中山區",
    "detailAddress": "台北市中山區南京東路三段29號",
    "姓名": "李英祥",
    "性別": "男",
    "生年月日": "0310607",
    "education": "中山",
    "title": "大台北牙醫",
    "會員身份": "A",
    "opentime" :"下午5:00-下午9:00",
    "coordinates": {"latitude": 25.052245,"longitude": 121.537984}
  },
  {
    "區別": "中山區",
    "detailAddress": "台北市中山區伊通街104號2樓",
    "姓名": "林瀛海",
    "性別": "男",
    "生年月日": "0350730",
    "education": "中山",
    "title": "瀛海牙醫",
    "會員身份": "A",
    "opentime" :"下午5:00-下午9:00",
    "coordinates": {"latitude": 25.0539066,"longitude": 121.5346295}
  },
  {
    "區別": "大同區",
    "detailAddress": "台北市大同區太原路154之11號",
    "姓名": "江英吉",
    "性別": "男",
    "生年月日": "0380615",
    "education": "中山",
    "title": "英士牙醫",
    "會員身份": "A",
    "opentime" :"下午5:00-下午9:00",
    "coordinates": {"latitude": 25.0546839,"longitude": 121.5163159}
  },
  {
    "區別": "中山區",
    "detailAddress": "台北市中山區長春路408號3樓",
    "姓名": "連益雄",
    "性別": "男",
    "生年月日": "0320814",
    "education": "北醫",
    "title": "上恩牙醫",
    "會員身份": "A",
    "opentime" :"下午5:00-下午9:00",
    "coordinates": {"latitude": 25.05442,"longitude": 121.543699}
  },
  {
    "區別": "中山區",
    "detailAddress": "台北市中山區農安街12號2樓",
    "姓名": "黃大偉",
    "性別": "男",
    "生年月日": "0351212",
    "education": "中山",
    "title": "黃大偉牙醫",
    "會員身份": "A",
    "opentime" :"下午5:00-下午9:00",
    "coordinates": {"latitude": 25.0648531,"longitude": 121.5240703}
  },
  {
    "區別": "中山區",
    "detailAddress": "台北市中山區南京東路二段21巷20號",
    "姓名": "黃武勳",
    "性別": "男",
    "生年月日": "0320902",
    "education": "北醫",
    "title": "標準牙醫",
    "會員身份": "A",
    "opentime" :"下午5:00-下午9:00",
    "coordinates": {"latitude": 25.0528848,"longitude": 121.5286842}
  },
  {
    "區別": "大安區",
    "detailAddress": "台北市大安區忠孝東路四段216巷11弄4號",
    "姓名": "陳英俊",
    "性別": "男",
    "生年月日": "0380630",
    "education": "中山",
    "title": "白宮牙醫",
    "會員身份": "A",
    "opentime" :"下午5:00-下午9:00",
    "coordinates": {"latitude": 25.0406958,"longitude": 121.5531156}
  },
  {
    "區別": "中山區",
    "detailAddress": "台北市中山區林森北路159巷10號",
    "姓名": "詹康宏",
    "性別": "男",
    "生年月日": "0311123",
    "education": "中山",
    "title": "民安牙醫",
    "會員身份": "A",
    "opentime" :"下午5:00-下午9:00",
    "coordinates": {"latitude": 25.0516359,"longitude": 121.525668}
  },
  {
    "區別": "中山區",
    "detailAddress": "台北市中山區林森北路432號2F-2",
    "姓名": "蔡朝雄",
    "性別": "男",
    "生年月日": "0280407",
    "education": "中山",
    "title": "蔡朝雄牙醫",
    "會員身份": "A",
    "opentime" :"下午5:00-下午9:00",
    "coordinates": {"latitude": 25.0601629,"longitude": 121.525422}
  },
  {
    "區別": "中山區",
    "detailAddress": "台北市中山區南京東路一段34號3樓",
    "姓名": "蕭崇禮",
    "性別": "男",
    "生年月日": "0340404",
    "education": "北醫",
    "title": "新現代牙醫",
    "會員身份": "A",
    "opentime" :"下午5:00-下午9:00",
    "coordinates": {"latitude": 25.0519779,"longitude": 121.5238809}
  },
  {
    "區別": "大安區",
    "detailAddress": "台北市大安區忠孝東路四段2號6樓之9",
    "姓名": "魏賢治",
    "性別": "男",
    "生年月日": "0251112",
    "education": "國防",
    "title": "魏牙醫",
    "會員身份": "A",
    "opentime" :"下午5:00-下午9:00",
    "coordinates": {"latitude": 25.041262,"longitude": 121.5440099}
  },
  {
    "區別": "松山區",
    "detailAddress": "台北市松山區南京東路5段163-3號3樓",
    "姓名": "李玉閣",
    "性別": "男",
    "生年月日": "0360802",
    "education": "中山",
    "title": "李玉閣牙醫",
    "會員身份": "A",
    "opentime" :"下午5:00-下午9:00",
    "coordinates": {"latitude": 25.0516569,"longitude": 121.5626669}
  },
  {
    "區別": "信義區",
    "detailAddress": "台北市信義區松山路467號2樓",
    "姓名": "吳學儀",
    "性別": "男",
    "生年月日": "0291203",
    "education": "中山",
    "title": "吳牙醫",
    "會員身份": "A",
    "opentime" :"下午5:00-下午9:00",
    "coordinates": {"latitude": 25.0394351,"longitude": 121.5780008}
  },
  {
    "區別": "松山區",
    "detailAddress": "台北市松山區八德路三段147-2號",
    "姓名": "林登雄",
    "性別": "男",
    "生年月日": "0301218",
    "education": "中山",
    "title": "惠民牙醫",
    "會員身份": "A",
    "opentime" :"下午5:00-下午9:00",
    "coordinates": {"latitude": 25.0481808,"longitude": 121.5549205}
  },
  {
    "區別": "松山區",
    "detailAddress": "台北市松山區八德路三段106巷50號",
    "姓名": "林哲伸",
    "性別": "男",
    "生年月日": "0330125",
    "education": "北醫",
    "title": "哲伸牙醫",
    "會員身份": "A",
    "opentime" :"下午5:00-下午9:00",
    "coordinates": {"latitude": 25.0466877,"longitude": 121.5541584}
  },
  {
    "區別": "信義區",
    "detailAddress": "台北市信義區忠孝東路五段623號3樓",
    "姓名": "林忠光",
    "性別": "男",
    "生年月日": "0351207",
    "education": "中山",
    "title": "中光牙醫",
    "會員身份": "A",
    "opentime" :"下午5:00-下午9:00",
    "coordinates": {"latitude": 25.0417799,"longitude": 121.5791809}
  },
//   {
//     "區別": "松山區",
//     "detailAddress": "台北市松山區南京東路五段256號1F",
//     "姓名": "周武雄",
//     "性別": "男",
//     "生年月日": "0310728",
//     "education": "中山",
//     "title": "周牙醫",
//     "會員身份": "A",
//     "opentime" :"下午5:00-下午9:00",
//     "coordinates": {"latitude": 25.0511458,"longitude": 121.5663735}
//   },
//   {
//     "區別": "松山區",
//     "detailAddress": "台北市松山區南京東路三段260-1號2樓",
//     "姓名": "邱鴻基",
//     "性別": "男",
//     "生年月日": "0360922",
//     "education": "北醫",
//     "title": "暘昇牙醫",
//     "會員身份": "A",
//     "opentime" :"下午5:00-下午9:00",
//     "coordinates": {"latitude": 25.0516938,"longitude": 121.5446445}
//   },
//   {
//     "區別": "松山區",
//     "detailAddress": "台北市松山區三民路143號",
//     "姓名": "施貞雄",
//     "性別": "男",
//     "生年月日": "0310104",
//     "education": "中山",
//     "title": "施牙醫",
//     "會員身份": "A",
//     "opentime" :"下午5:00-下午9:00",
//     "coordinates": {"latitude": 25.060688,"longitude": 121.563077}
//   },
//   {
//     "區別": "信義區",
//     "detailAddress": "台北市信義區松山路261號1樓、B1",
//     "姓名": "徐隆祥",
//     "性別": "男",
//     "生年月日": "0320818",
//     "education": "北醫",
//     "title": "臺元牙醫",
//     "會員身份": "A",
//     "opentime" :"下午5:00-下午9:00",
//     "coordinates": {"latitude": 25.043757,"longitude": 121.5780272}
//   },
//   {
//     "區別": "信義區",
//     "detailAddress": "台北市信義區松山路541巷23號",
//     "姓名": "陳明繁",
//     "性別": "男",
//     "生年月日": "0320807",
//     "education": "北醫",
//     "title": "陳明繁牙醫",
//     "會員身份": "A",
//     "opentime" :"下午5:00-下午9:00",
//     "coordinates": {"latitude": 25.037964,"longitude": 121.5790249}
//   },
//   {
//     "區別": "松山區",
//     "detailAddress": "台北市松山區南京東路五段259號1樓",
//     "姓名": "陳勝華",
//     "性別": "男",
//     "生年月日": "0350618",
//     "education": "高醫",
//     "title": "怡德牙醫",
//     "會員身份": "A",
//     "opentime" :"下午5:00-下午9:00",
//     "coordinates": {"latitude": 25.051599,"longitude": 121.565321}
//   },
//   {
//     "區別": "信義區",
//     "detailAddress": "台北市信義區永吉路234號",
//     "姓名": "黃瑞濱",
//     "性別": "男",
//     "生年月日": "0361104",
//     "education": "中山",
//     "title": "永吉牙醫",
//     "會員身份": "A",
//     "opentime" :"下午5:00-下午9:00",
//     "coordinates": {"latitude": 25.045369,"longitude": 121.573772}
//   },
//   {
//     "區別": "信義區",
//     "detailAddress": "台北市信義區虎林街222巷16號",
//     "姓名": "賴玉新",
//     "性別": "男",
//     "生年月日": "0251103",
//     "education": "中山",
//     "title": "仁美牙醫",
//     "會員身份": "A",
//     "opentime" :"下午5:00-下午9:00",
//     "coordinates": {"latitude": 25.037112,"longitude": 121.576714}
//   },
//   {
//     "區別": "北投區",
//     "detailAddress": "台北市北投區中和街329號",
//     "姓名": "黃永錫",
//     "性別": "男",
//     "生年月日": "0360723",
//     "education": "中山",
//     "title": "鑫鑫牙醫",
//     "會員身份": "A",
//     "opentime" :"下午5:00-下午9:00",
//     "coordinates": {"latitude": 25.140899,"longitude": 121.499724}
//   },
//   {
//     "區別": "信義區",
//     "detailAddress": "台北市信義區莊敬路285號",
//     "姓名": "劉明宗",
//     "性別": "男",
//     "生年月日": "0380622",
//     "education": "北醫",
//     "title": "華明牙醫",
//     "會員身份": "A",
//     "opentime" :"下午5:00-下午9:00",
//     "coordinates": {"latitude": 25.0288629,"longitude": 121.5630465}
//   },
//   {
//     "區別": "松山區",
//     "detailAddress": "台北市松山區慶城街24號2樓",
//     "姓名": "王敦正",
//     "性別": "男",
//     "生年月日": "0320413",
//     "education": "北醫",
//     "title": "麟翔牙醫",
//     "會員身份": "A",
//     "opentime" :"下午5:00-下午9:00",
//     "coordinates": {"latitude": 25.0536839,"longitude": 121.545814}
//   },
//   {
//     "區別": "大安區",
//     "detailAddress": "台北市大安區信義路二段226號3F",
//     "姓名": "紀光慎",
//     "性別": "男",
//     "生年月日": "0350412",
//     "education": "台大",
//     "title": "椰林牙醫",
//     "會員身份": "A",
//     "opentime" :"下午5:00-下午9:00",
//     "coordinates": {"latitude": 25.0333921,"longitude": 121.5315564}
//   },
//   {
//     "區別": "大安區",
//     "detailAddress": "台北市大安區大安路二段27巷1號2F-1",
//     "姓名": "陳勝盛",
//     "性別": "男",
//     "生年月日": "0310514",
//     "education": "中山",
//     "title": "力仁牙醫",
//     "會員身份": "A",
//     "opentime" :"下午5:00-下午9:00",
//     "coordinates": {"latitude": 25.0321306,"longitude": 121.5462189}
//   },
//   {
//     "區別": "信義區",
//     "detailAddress": "台北市信義區忠孝東路五段372巷27弄88號",
//     "姓名": "郭章仁",
//     "性別": "男",
//     "生年月日": "0341222",
//     "education": "中山",
//     "title": "郭牙醫",
//     "會員身份": "A",
//     "opentime" :"下午5:00-下午9:00",
//     "coordinates": {"latitude": 25.039362,"longitude": 121.576012}
//   },
//   {
//     "區別": "中山區",
//     "detailAddress": "台北市中山區北安路805巷4弄1號",
//     "姓名": "梁樹基",
//     "性別": "男",
//     "生年月日": "0360502",
//     "education": "中山",
//     "title": "協合牙醫",
//     "會員身份": "A",
//     "opentime" :"下午5:00-下午9:00",
//     "coordinates": {"latitude": 25.0860253,"longitude": 121.554461}
//   },
//   {
//     "區別": "中正區",
//     "detailAddress": "台北市中正區新生南路一段128號",
//     "姓名": "蕭煥嘉",
//     "性別": "男",
//     "生年月日": "0360604",
//     "education": "中山",
//     "title": "蕭煥嘉牙醫",
//     "會員身份": "A",
//     "opentime" :"下午5:00-下午9:00",
//     "coordinates": {"latitude": 25.0370308,"longitude": 121.532526}
//   },
//   {
//     "區別": "士林區",
//     "detailAddress": "台北市士林區大東路137號1樓",
//     "姓名": "楊恭熙",
//     "性別": "男",
//     "生年月日": "0330113",
//     "education": "北醫",
//     "title": "楊恭熙牙醫",
//     "會員身份": "A",
//     "opentime" :"下午5:00-下午9:00",
//     "coordinates": {"latitude": 25.0919137,"longitude": 121.5253583}
//   },
//   {
//     "區別": "大安區",
//     "detailAddress": "台北市大安區和平東路一段198號2F",
//     "姓名": "蔡榮宗",
//     "性別": "男",
//     "生年月日": "0360607",
//     "education": "中山",
//     "title": "欣欣牙醫",
//     "會員身份": "A",
//     "opentime" :"下午5:00-下午9:00",
//     "coordinates": {"latitude": 25.026168,"longitude": 121.531183}
//   },
//   {
//     "區別": "大安區",
//     "detailAddress": "台北市大安區復興南路一段135巷17號2樓之1",
//     "姓名": "賴海元",
//     "性別": "男",
//     "生年月日": "0290730",
//     "education": "中山",
//     "title": "元華牙醫",
//     "會員身份": "A",
//     "opentime" :"下午5:00-下午9:00",
//     "coordinates": {"latitude": 25.0427089,"longitude": 121.5451456}
//   },
//   {
//     "區別": "中正區",
//     "detailAddress": "台北市中正區杭州南路一段143巷31號2樓",
//     "姓名": "黃書斌",
//     "性別": "男",
//     "生年月日": "0371108",
//     "education": "中山",
//     "title": "玉立牙醫",
//     "會員身份": "A",
//     "opentime" :"下午5:00-下午9:00",
//     "coordinates": {"latitude": 25.0358284,"longitude": 121.5267809}
//   },
//   {
//     "區別": "大安區",
//     "detailAddress": "台北市大安區和平東路二段127號",
//     "姓名": "楊薰瑤",
//     "性別": "男",
//     "生年月日": "0370506",
//     "education": "中山",
//     "title": "永大牙醫",
//     "會員身份": "A",
//     "opentime" :"下午5:00-下午9:00",
//     "coordinates": {"latitude": 25.0254582,"longitude": 121.540653}
//   },
//   {
//     "區別": "中正區",
//     "detailAddress": "台北市中正區汀州路二段30號",
//     "姓名": "官宏道",
//     "性別": "男",
//     "生年月日": "0360324",
//     "education": "北醫",
//     "title": "三民牙醫",
//     "會員身份": "A",
//     "opentime" :"下午5:00-下午9:00",
//     "coordinates": {"latitude": 25.0253442,"longitude": 121.5172164}
//   },
//   {
//     "區別": "士林區",
//     "detailAddress": "台北市士林區忠誠路一段57號1樓",
//     "姓名": "許俊宏",
//     "性別": "男",
//     "生年月日": "0350711",
//     "education": "北醫",
//     "title": "許牙醫",
//     "會員身份": "A",
//     "opentime" :"下午5:00-下午9:00",
//     "coordinates": {"latitude": 25.104007,"longitude": 121.527829}
//   },
//   {
//     "區別": "中正區",
//     "detailAddress": "台北市中正區南昌路一段74巷13號",
//     "姓名": "廖國郁",
//     "性別": "男",
//     "生年月日": "0340126",
//     "education": "台大",
//     "title": "聯合牙醫",
//     "會員身份": "A",
//     "opentime" :"下午5:00-下午9:00",
//     "coordinates": {"latitude": 25.030877,"longitude": 121.516776}
//   },
//   {
//     "區別": "中正區",
//     "detailAddress": "台北市中正區羅斯福路三段50號2樓之1",
//     "姓名": "蔡展光",
//     "性別": "男",
//     "生年月日": "0300404",
//     "education": "中山",
//     "title": "展光牙醫",
//     "會員身份": "A",
//     "opentime" :"下午5:00-下午9:00",
//     "coordinates": {"latitude": 25.0227129,"longitude": 121.5255499}
//   },
//   {
//     "區別": "萬華區",
//     "detailAddress": "台北市萬華區西藏路262號",
//     "姓名": "蕭輝隆",
//     "性別": "男",
//     "生年月日": "0370714",
//     "education": "中山",
//     "title": "蕭輝隆牙醫",
//     "會員身份": "A",
//     "opentime" :"下午5:00-下午9:00",
//     "coordinates": {"latitude": 25.029822,"longitude": 121.5014634}
//   },
//   {
//     "區別": "北投區",
//     "detailAddress": "台北市北投區石牌路一段162號",
//     "姓名": "吳治南",
//     "性別": "男",
//     "生年月日": "0330119",
//     "education": "中山",
//     "title": "青島牙醫",
//     "會員身份": "A",
//     "opentime" :"下午5:00-下午9:00",
//     "coordinates": {"latitude": 25.1143085,"longitude": 121.5134171}
//   },
//   {
//     "區別": "士林區",
//     "detailAddress": "台北市士林區延平北路五段186號2F",
//     "姓名": "周弘淵",
//     "性別": "男",
//     "生年月日": "0300116",
//     "education": "北醫",
//     "title": "光華牙醫",
//     "會員身份": "A",
//     "opentime" :"下午5:00-下午9:00",
//     "coordinates": {"latitude": 25.0832679,"longitude": 121.5102793}
//   },
//   {
//     "區別": "士林區",
//     "detailAddress": "台北市士林區延平北路六段176巷6弄1號1樓",
//     "姓名": "高月瑛",
//     "性別": "女",
//     "生年月日": "0330613",
//     "education": "北醫",
//     "title": "永平牙醫",
//     "會員身份": "A",
//     "opentime" :"下午5:00-下午9:00",
//     "coordinates": {"latitude": 25.0899384,"longitude": 121.5061614}
//   },
//   {
//     "區別": "士林區",
//     "detailAddress": "台北市士林區大西路25號",
//     "姓名": "謝昭亮",
//     "性別": "男",
//     "生年月日": "0380324",
//     "education": "北醫",
//     "title": "昭亮牙醫",
//     "會員身份": "A",
//     "opentime" :"下午5:00-下午9:00",
//     "coordinates": {"latitude": 25.090236,"longitude": 121.524191}
//   },
//   {
//     "區別": "北投區",
//     "detailAddress": "台北市北投區自強街141巷3號",
//     "姓名": "曹淑子",
//     "性別": "女",
//     "生年月日": "0330229",
//     "education": "中山",
//     "title": "曹牙醫",
//     "會員身份": "A",
//     "opentime" :"下午5:00-下午9:00",
//     "coordinates": {"latitude": 25.1111927,"longitude": 121.5162908}
//   },
//   {
//     "區別": "北投區",
//     "detailAddress": "台北市北投區公館路35號1樓",
//     "姓名": "劉  蓬",
//     "性別": "女",
//     "生年月日": "0370517",
//     "education": "高醫",
//     "title": "啟容牙醫",
//     "會員身份": "A",
//     "opentime" :"下午5:00-下午9:00",
//     "coordinates": {"latitude": 25.1330757,"longitude": 121.5032345}
//   },
//   {
//     "區別": "士林區",
//     "detailAddress": "台北市士林區中山北路六段161號2樓之3",
//     "姓名": "賴政宗",
//     "性別": "男",
//     "生年月日": "0361004",
//     "education": "中山",
//     "title": "賴牙醫",
//     "會員身份": "A",
//     "opentime" :"下午5:00-下午9:00",
//     "coordinates": {"latitude": 25.1069943,"longitude": 121.524814}
//   },
//   {
//     "區別": "北投區",
//     "detailAddress": "台北市北投區中和街309號",
//     "姓名": "黃元興",
//     "性別": "男",
//     "生年月日": "0380301",
//     "education": "台大",
//     "title": "五洲牙醫",
//     "會員身份": "A",
//     "opentime" :"下午5:00-下午9:00",
//     "coordinates": {"latitude": 25.140638,"longitude": 121.499994}
//   },
//   {
//     "區別": "中山區",
//     "detailAddress": "台北市中山區雙城街1號之1",
//     "姓名": "周全明",
//     "性別": "男",
//     "生年月日": "0390310",
//     "education": "中山",
//     "title": "大明牙醫",
//     "會員身份": "A",
//     "opentime" :"下午5:00-下午9:00",
//     "coordinates": {"latitude": 25.0630116,"longitude": 121.5244641}
//   },
//   {
//     "區別": "大同區",
//     "detailAddress": "台北市大同區太原路75號2樓",
//     "姓名": "陳憲文",
//     "性別": "男",
//     "生年月日": "0350827",
//     "education": "中山",
//     "title": "欣樺牙醫",
//     "會員身份": "A",
//     "opentime" :"下午5:00-下午9:00",
//     "coordinates": {"latitude": 25.0517678,"longitude": 121.5157107}
//   },
//   {
//     "區別": "萬華區",
//     "detailAddress": "台北市萬華區和平西路三段64號",
//     "姓名": "張智信",
//     "性別": "男",
//     "生年月日": "0400207",
//     "education": "中山",
//     "title": "信恩牙醫",
//     "會員身份": "A",
//     "opentime" :"下午5:00-下午9:00",
//     "coordinates": {"latitude": 25.0349763,"longitude": 121.5032138}
//   },
//   {
//     "區別": "中山區",
//     "detailAddress": "台北市中山區新生北路一段51號永祥大廈5樓",
//     "姓名": "楊正隆",
//     "性別": "男",
//     "生年月日": "0361230",
//     "education": "中山",
//     "title": "康寧牙醫",
//     "會員身份": "A",
//     "opentime" :"下午5:00-下午9:00",
//     "coordinates": {"latitude": 25.0481488,"longitude": 121.5301168}
//   },
//   {
//     "區別": "信義區",
//     "detailAddress": "台北市信義區光復南路449號1F",
//     "姓名": "林聰明",
//     "性別": "男",
//     "生年月日": "0351215",
//     "education": "中山",
//     "title": "林聰明牙醫",
//     "會員身份": "A",
//     "opentime" :"下午5:00-下午9:00",
//     "coordinates": {"latitude": 25.0349837,"longitude": 121.5576966}
//   },
//   {
//     "區別": "大安區",
//     "detailAddress": "台北市大安區泰順街10號",
//     "姓名": "王叔岩",
//     "性別": "男",
//     "生年月日": "0350619",
//     "education": "北醫",
//     "title": "王叔岩牙醫",
//     "會員身份": "A",
//     "opentime" :"下午5:00-下午9:00",
//     "coordinates": {"latitude": 25.025639,"longitude": 121.531417}
//   },
//   {
//     "區別": "中山區",
//     "detailAddress": "台北市中山區長安東路二段101號2樓",
//     "姓名": "馬隆祥",
//     "性別": "男",
//     "生年月日": "0370807",
//     "education": "高醫",
//     "title": "大華牙醫",
//     "會員身份": "A",
//     "opentime" :"下午5:00-下午9:00",
//     "coordinates": {"latitude": 25.048533,"longitude": 121.5351119}
//   },
//   {
//     "區別": "萬華區",
//     "detailAddress": "台北市萬華區長沙街二段45號2樓",
//     "姓名": "楊欽榮",
//     "性別": "男",
//     "生年月日": "0380805",
//     "education": "中山",
//     "title": "同仁牙醫",
//     "會員身份": "A",
//     "opentime" :"下午5:00-下午9:00",
//     "coordinates": {"latitude": 25.0407599,"longitude": 121.50592}
//   },
//   {
//     "區別": "大安區",
//     "detailAddress": "台北市大安區羅斯福路三段227號3F",
//     "姓名": "朱次生",
//     "性別": "男",
//     "生年月日": "0380601",
//     "education": "中山",
//     "title": "保仁牙醫",
//     "會員身份": "A",
//     "opentime" :"下午5:00-下午9:00",
//     "coordinates": {"latitude": 25.019616,"longitude": 121.529699}
//   },
//   {
//     "區別": "信義區",
//     "detailAddress": "台北市信義區崇德街4號",
//     "姓名": "林文飛",
//     "性別": "男",
//     "生年月日": "0380830",
//     "education": "中山",
//     "title": "上林牙醫",
//     "會員身份": "A",
//     "opentime" :"下午5:00-下午9:00",
//     "coordinates": {"latitude": 25.0242492,"longitude": 121.5531402}
//   },
//   {
//     "區別": "大安區",
//     "detailAddress": "台北市大安區復興南路一段206號4樓之1",
//     "姓名": "潘以澄",
//     "性別": "男",
//     "生年月日": "0321130",
//     "education": "北醫",
//     "title": "新華陀牙醫",
//     "會員身份": "A",
//     "opentime" :"下午5:00-下午9:00",
//     "coordinates": {"latitude": 25.0394946,"longitude": 121.5435028}
//   },
//   {
//     "區別": "松山區",
//     "detailAddress": "台北市松山區光復南路21之4號1樓",
//     "姓名": "賴碩彥",
//     "性別": "男",
//     "生年月日": "0390107",
//     "education": "中山",
//     "title": "宏慈牙醫",
//     "會員身份": "A",
//     "opentime" :"下午5:00-下午9:00",
//     "coordinates": {"latitude": 25.0469383,"longitude": 121.5580278}
//   },
//   {
//     "區別": "萬華區",
//     "detailAddress": "台北市萬華區東園街118號",
//     "姓名": "林進元",
//     "性別": "男",
//     "生年月日": "0370619",
//     "education": "北醫",
//     "title": "進安牙醫",
//     "會員身份": "A",
//     "opentime" :"下午5:00-下午9:00",
//     "coordinates": {"latitude": 25.024035,"longitude": 121.497251}
//   },
//   {
//     "區別": "大安區",
//     "detailAddress": "台北市大安區通化街12巷6號",
//     "姓名": "張玉璇",
//     "性別": "女",
//     "生年月日": "0350307",
//     "education": "中山",
//     "title": "光復牙醫",
//     "會員身份": "A",
//     "opentime" :"下午5:00-下午9:00",
//     "coordinates": {"latitude": 25.032083,"longitude": 121.5538774}
//   },
//   {
//     "區別": "信義區",
//     "detailAddress": "台北市信義區松德路45號",
//     "姓名": "王忠川",
//     "性別": "男",
//     "生年月日": "0331024",
//     "education": "中山",
//     "title": "福德牙醫",
//     "會員身份": "A",
//     "opentime" :"下午5:00-下午9:00",
//     "coordinates": {"latitude": 25.038894,"longitude": 121.577215}
//   },
//   {
//     "區別": "中山區",
//     "detailAddress": "台北市中山區民生東路二段93巷4號",
//     "姓名": "趙名禮",
//     "性別": "男",
//     "生年月日": "0361115",
//     "education": "北醫",
//     "title": "榮星牙醫",
//     "會員身份": "A",
//     "opentime" :"下午5:00-下午9:00",
//     "coordinates": {"latitude": 25.0582362,"longitude": 121.530834}
//   },
//   {
//     "區別": "中正區",
//     "detailAddress": "台北市中正區南陽街3號3樓",
//     "姓名": "溫俊廣",
//     "性別": "男",
//     "生年月日": "0310515",
//     "education": "日本齒科大學",
//     "title": "俊廣牙醫",
//     "會員身份": "A",
//     "opentime" :"下午5:00-下午9:00",
//     "coordinates": {"latitude": 25.0454359,"longitude": 121.5161869}
//   },
//   {
//     "區別": "大安區",
//     "detailAddress": "台北市大安區羅斯福路二段79號5樓之四、5樓",
//     "姓名": "趙新生",
//     "性別": "男",
//     "生年月日": "0400212",
//     "education": "台大",
//     "title": "惠群牙醫",
//     "會員身份": "A",
//     "opentime" :"下午5:00-下午9:00",
//     "coordinates": {"latitude": 25.0261552,"longitude": 121.5234068}
//   },
//   {
//     "區別": "信義區",
//     "detailAddress": "台北市信義區大道路73號",
//     "姓名": "吳篤亮",
//     "性別": "男",
//     "生年月日": "0390303",
//     "education": "中山",
//     "title": "松德牙醫",
//     "會員身份": "A",
//     "opentime" :"下午5:00-下午9:00",
//     "coordinates": {"latitude": 25.040959,"longitude": 121.582537}
//   },
//   {
//     "區別": "大同區",
//     "detailAddress": "台北市大同區西寧北路51之1號2樓",
//     "姓名": "徐建成",
//     "性別": "男",
//     "生年月日": "0390306",
//     "education": "北醫",
//     "title": "建成牙醫",
//     "會員身份": "A",
//     "opentime" :"下午5:00-下午9:00",
//     "coordinates": {"latitude": 25.0542341,"longitude": 121.508906}
//   },
//   {
//     "區別": "萬華區",
//     "detailAddress": "台北市萬華區西寧南路91號2樓",
//     "姓名": "陳良裕",
//     "性別": "男",
//     "生年月日": "0390120",
//     "education": "北醫",
//     "title": "天一牙醫",
//     "會員身份": "A",
//     "opentime" :"下午5:00-下午9:00",
//     "coordinates": {"latitude": 25.0454119,"longitude": 121.506842}
//   },
//   {
//     "區別": "士林區",
//     "detailAddress": "台北市士林區中山北路六段433號",
//     "姓名": "楊正安",
//     "性別": "男",
//     "生年月日": "0380328",
//     "education": "中山",
//     "title": "士東牙醫",
//     "會員身份": "A",
//     "opentime" :"下午5:00-下午9:00",
//     "coordinates": {"latitude": 25.1144525,"longitude": 121.5272268}
//   },
//   {
//     "區別": "中山區",
//     "detailAddress": "台北市中山區天津街62號3樓",
//     "姓名": "陳  均",
//     "性別": "男",
//     "生年月日": "0320103",
//     "education": "國防",
//     "title": "陳均牙醫",
//     "會員身份": "A",
//     "opentime" :"下午5:00-下午9:00",
//     "coordinates": {"latitude": 25.05112,"longitude": 121.523158}
//   },
//   {
//     "區別": "萬華區",
//     "detailAddress": "台北市萬華區康定路152巷1-1號",
//     "姓名": "呂正男",
//     "性別": "男",
//     "生年月日": "0310803",
//     "education": "國防",
//     "title": "再欣牙醫",
//     "會員身份": "A",
//     "opentime" :"下午5:00-下午9:00",
//     "coordinates": {"latitude": 25.0397721,"longitude": 121.5014495}
//   },
//   {
//     "區別": "大安區",
//     "detailAddress": "台北市大安區忠孝東路三段259號1、2樓",
//     "姓名": "梁榮洲",
//     "性別": "男",
//     "生年月日": "0390825",
//     "education": "中山",
//     "title": "華仁牙醫",
//     "會員身份": "A",
//     "opentime" :"下午5:00-下午9:00",
//     "coordinates": {"latitude": 25.0418561,"longitude": 121.5419778}
//   },
//   {
//     "區別": "松山區",
//     "detailAddress": "台北市松山區南京東路四段117號",
//     "姓名": "舒凱年",
//     "性別": "男",
//     "生年月日": "0360423",
//     "education": "高醫",
//     "title": "華中牙醫",
//     "會員身份": "A",
//     "opentime" :"下午5:00-下午9:00",
//     "coordinates": {"latitude": 25.051841,"longitude": 121.5548313}
//   },
//   {
//     "區別": "中山區",
//     "detailAddress": "台北市中山區中原街48號2樓",
//     "姓名": "張隆昌",
//     "性別": "男",
//     "生年月日": "0390812",
//     "education": "台大",
//     "title": "隆昌牙醫",
//     "會員身份": "A",
//     "opentime" :"下午5:00-下午9:00",
//     "coordinates": {"latitude": 25.058411,"longitude": 121.5288073}
//   },
//   {
//     "區別": "大安區",
//     "detailAddress": "台北市大安區東豐街57號",
//     "姓名": "林俊希",
//     "性別": "男",
//     "生年月日": "0390815",
//     "education": "台大",
//     "title": "懷仁牙醫",
//     "會員身份": "A",
//     "opentime" :"下午5:00-下午9:00",
//     "coordinates": {"latitude": 25.0361366,"longitude": 121.5473714}
//   },
//   {
//     "區別": "萬華區",
//     "detailAddress": "台北市萬華區雙園街31號",
//     "姓名": "藍碩亨",
//     "性別": "男",
//     "生年月日": "0390705",
//     "education": "中山",
//     "title": "永亨牙醫",
//     "會員身份": "A",
//     "opentime" :"下午5:00-下午9:00",
//     "coordinates": {"latitude": 25.0295854,"longitude": 121.4946756}
//   },
//   {
//     "區別": "中正區",
//     "detailAddress": "台北市中正區重慶南路三段40號1F",
//     "姓名": "鐘有為",
//     "性別": "男",
//     "生年月日": "0400122",
//     "education": "高醫",
//     "title": "鐘牙醫",
//     "會員身份": "A",
//     "opentime" :"下午5:00-下午9:00",
//     "coordinates": {"latitude": 25.028349,"longitude": 121.515504}
//   },
//   {
//     "區別": "松山區",
//     "detailAddress": "台北市松山區新中街12-1號1樓",
//     "姓名": "黃焜崇",
//     "性別": "男",
//     "生年月日": "0390824",
//     "education": "中山",
//     "title": "新中牙醫",
//     "會員身份": "A",
//     "opentime" :"下午5:00-下午9:00",
//     "coordinates": {"latitude": 25.0599469,"longitude": 121.560436}
//   },
//   {
//     "區別": "中山區",
//     "detailAddress": "台北市中山區長安東路二段169-12號3樓之2",
//     "姓名": "林明堪",
//     "性別": "男",
//     "生年月日": "0400905",
//     "education": "北醫",
//     "title": "大千牙醫",
//     "會員身份": "A",
//     "opentime" :"下午5:00-下午9:00",
//     "coordinates": {"latitude": 25.048396,"longitude": 121.54148}
//   },
//   {
//     "區別": "大安區",
//     "detailAddress": "台北市大安區樂利路38號",
//     "姓名": "黃作淦",
//     "性別": "男",
//     "生年月日": "0380904",
//     "education": "中山",
//     "title": "天仁牙醫",
//     "會員身份": "A",
//     "opentime" :"下午5:00-下午9:00",
//     "coordinates": {"latitude": 25.026769,"longitude": 121.551517}
//   },
//   {
//     "區別": "松山區",
//     "detailAddress": "台北市松山區富錦街527號1樓",
//     "姓名": "林伯勳",
//     "性別": "男",
//     "生年月日": "0400407",
//     "education": "中山",
//     "title": "富錦牙醫",
//     "會員身份": "A",
//     "opentime" :"下午5:00-下午9:00",
//     "coordinates": {"latitude": 25.0613181,"longitude": 121.5651157}
//   },
//   {
//     "區別": "中山區",
//     "detailAddress": "台北市中山區龍江路328巷41號1樓",
//     "姓名": "莊建全",
//     "性別": "男",
//     "生年月日": "0351109",
//     "education": "國防",
//     "title": "莊建全牙醫",
//     "會員身份": "A",
//     "opentime" :"下午5:00-下午9:00",
//     "coordinates": {"latitude": 25.0652929,"longitude": 121.538573}
//   },
//   {
//     "區別": "松山區",
//     "detailAddress": "台北市松山區民生東路五段243號",
//     "姓名": "李政雄",
//     "性別": "男",
//     "生年月日": "0330102",
//     "education": "中山",
//     "title": "政雄牙醫",
//     "會員身份": "A",
//     "opentime" :"下午5:00-下午9:00",
//     "coordinates": {"latitude": 25.0593912,"longitude": 121.5677931}
//   },
//   {
//     "區別": "大安區",
//     "detailAddress": "台北市大安區光復南路420巷7號",
//     "姓名": "林令堪",
//     "性別": "男",
//     "生年月日": "0380708",
//     "education": "中山",
//     "title": "天祥牙醫",
//     "會員身份": "A",
//     "opentime" :"下午5:00-下午9:00",
//     "coordinates": {"latitude": 25.0363524,"longitude": 121.5565474}
//   },
//   {
//     "區別": "大同區",
//     "detailAddress": "台北市大同區重慶北路二段183號3樓之1",
//     "姓名": "杜瑞煙",
//     "性別": "男",
//     "生年月日": "0381117",
//     "education": "北醫",
//     "title": "杜瑞煙牙醫",
//     "會員身份": "A",
//     "opentime" :"下午5:00-下午9:00",
//     "coordinates": {"latitude": 25.0599141,"longitude": 121.5137663}
//   },
//   {
//     "區別": "大安區",
//     "detailAddress": "台北市大安區金華街241號",
//     "姓名": "胡清龍",
//     "性別": "男",
//     "生年月日": "0381001",
//     "education": "北醫",
//     "title": "見安牙醫",
//     "會員身份": "A",
//     "opentime" :"下午5:00-下午9:00",
//     "coordinates": {"latitude": 25.029851,"longitude": 121.530365}
//   },
//   {
//     "區別": "松山區",
//     "detailAddress": "台北市松山區民權東路五段50號1樓",
//     "姓名": "徐寶雄",
//     "性別": "男",
//     "生年月日": "0331024",
//     "education": "中山",
//     "title": "一泰牙醫",
//     "會員身份": "A",
//     "opentime" :"下午5:00-下午9:00",
//     "coordinates": {"latitude": 25.062924,"longitude": 121.5650713}
//   },
//   {
//     "區別": "中正區",
//     "detailAddress": "台北市中正區臨沂街79-10號1樓",
//     "姓名": "陳貴和",
//     "性別": "男",
//     "生年月日": "0400916",
//     "education": "高醫",
//     "title": "東門牙醫",
//     "會員身份": "A",
//     "opentime" :"下午5:00-下午9:00",
//     "coordinates": {"latitude": 25.034528,"longitude": 121.527977}
//   },
//   {
//     "區別": "文山區",
//     "detailAddress": "台北市文山區景興路57號",
//     "姓名": "王錫淵",
//     "性別": "男",
//     "生年月日": "0400704",
//     "education": "中山",
//     "title": "聖德牙醫",
//     "會員身份": "A",
//     "opentime" :"下午5:00-下午9:00",
//     "coordinates": {"latitude": 24.9965956,"longitude": 121.5448552}
//   },
//   {
//     "區別": "大安區",
//     "detailAddress": "台北市大安區忠孝東路三段86號1樓",
//     "姓名": "戴悅生",
//     "性別": "男",
//     "生年月日": "0401114",
//     "education": "台大",
//     "title": "天津牙醫",
//     "會員身份": "A",
//     "opentime" :"下午5:00-下午9:00",
//     "coordinates": {"latitude": 25.041622,"longitude": 121.535896}
//   },
//   {
//     "區別": "士林區",
//     "detailAddress": "台北市士林區中正路234號",
//     "姓名": "沈民偉",
//     "性別": "男",
//     "生年月日": "0360318",
//     "education": "中山",
//     "title": "愛齒牙醫",
//     "會員身份": "A",
//     "opentime" :"下午5:00-下午9:00",
//     "coordinates": {"latitude": 25.0954374,"longitude": 121.5256954}
//   },
//   {
//     "區別": "中山區",
//     "detailAddress": "台北市中山區民生東路一段10號2樓",
//     "姓名": "黃德裕",
//     "性別": "男",
//     "生年月日": "0390508",
//     "education": "中山",
//     "title": "仁光牙醫",
//     "會員身份": "A",
//     "opentime" :"下午5:00-下午9:00",
//     "coordinates": {"latitude": 25.05785,"longitude": 121.5233909}
//   },
//   {
//     "區別": "信義區",
//     "detailAddress": "台北市信義區忠孝東路五段480號3樓之1",
//     "姓名": "楊明香",
//     "性別": "男",
//     "生年月日": "0350411",
//     "education": "台大",
//     "title": "達新牙醫",
//     "會員身份": "A",
//     "opentime" :"下午5:00-下午9:00",
//     "coordinates": {"latitude": 25.040586,"longitude": 121.577617}
//   },
//   {
//     "區別": "士林區",
//     "detailAddress": "台北市士林區天母東路1-2號",
//     "姓名": "黃忠得",
//     "性別": "男",
//     "生年月日": "0410225",
//     "education": "中山",
//     "title": "永芳牙醫",
//     "會員身份": "A",
//     "opentime" :"下午5:00-下午9:00",
//     "coordinates": {"latitude": 25.1182997,"longitude": 121.5310226}
//   },
//   {
//     "區別": "松山區",
//     "detailAddress": "台北市松山區敦化北路222巷62號1樓",
//     "姓名": "吳郁美",
//     "性別": "女",
//     "生年月日": "0410731",
//     "education": "北醫",
//     "title": "立達牙醫",
//     "會員身份": "A",
//     "opentime" :"下午5:00-下午9:00",
//     "coordinates": {"latitude": 25.0602119,"longitude": 121.5467685}
//   },
//   {
//     "區別": "大安區",
//     "detailAddress": "台北市大安區復興南路一段135巷27號4樓",
//     "姓名": "林仲禎",
//     "性別": "男",
//     "生年月日": "0390102",
//     "education": "中山",
//     "title": "仲禎牙醫",
//     "會員身份": "A",
//     "opentime" :"下午5:00-下午9:00",
//     "coordinates": {"latitude": 25.0427944,"longitude": 121.5454585}
//   },
//   {
//     "區別": "中正區",
//     "detailAddress": "台北市中正區濟南路二段19號2樓",
//     "姓名": "劉永生",
//     "性別": "男",
//     "生年月日": "0391225",
//     "education": "北醫",
//     "title": "劉永生牙醫",
//     "會員身份": "A",
//     "opentime" :"下午5:00-下午9:00",
//     "coordinates": {"latitude": 25.0413547,"longitude": 121.5279327}
//   },
//   {
//     "區別": "信義區",
//     "detailAddress": "台北市信義區和平東路三段235號",
//     "姓名": "沈錕進",
//     "性別": "男",
//     "生年月日": "0400616",
//     "education": "中山",
//     "title": "沈牙醫",
//     "會員身份": "A",
//     "opentime" :"下午5:00-下午9:00",
//     "coordinates": {"latitude": 25.0230175,"longitude": 121.5542488}
//   },
//   {
//     "區別": "士林區",
//     "detailAddress": "台北市士林區社子街7號",
//     "姓名": "黃朝棟",
//     "性別": "男",
//     "生年月日": "0391017",
//     "education": "中山",
//     "title": "社子黃牙醫",
//     "會員身份": "A",
//     "opentime" :"下午5:00-下午9:00",
//     "coordinates": {"latitude": 25.087754,"longitude": 121.5084738}
//   },
//   {
//     "區別": "大安區",
//     "detailAddress": "台北市大安區和平東路一段200號2F",
//     "姓名": "劉逸彥",
//     "性別": "男",
//     "生年月日": "0400701",
//     "education": "台大",
//     "title": "名人牙醫",
//     "會員身份": "A",
//     "opentime" :"下午5:00-下午9:00",
//     "coordinates": {"latitude": 25.026163,"longitude": 121.53126}
//   },
//   {
//     "區別": "文山區",
//     "detailAddress": "台北市文山區羅斯福路六段294號",
//     "姓名": "陳柏宇",
//     "性別": "男",
//     "生年月日": "0390415",
//     "education": "中山",
//     "title": "新同仁牙醫",
//     "會員身份": "A",
//     "opentime" :"下午5:00-下午9:00",
//     "coordinates": {"latitude": 24.9909799,"longitude": 121.5397477}
//   },
//   {
//     "區別": "文山區",
//     "detailAddress": "台北市文山區羅斯福路五段172號2樓",
//     "姓名": "奚臺陽",
//     "性別": "男",
//     "生年月日": "0391101",
//     "education": "北醫",
//     "title": "福祥牙醫",
//     "會員身份": "A",
//     "opentime" :"下午5:00-下午9:00",
//     "coordinates": {"latitude": 25.004312,"longitude": 121.538466}
//   },
//   {
//     "區別": "信義區",
//     "detailAddress": "台北市信義區吳興街345巷13號",
//     "姓名": "姜學惠",
//     "性別": "男",
//     "生年月日": "0391119",
//     "education": "台大",
//     "title": "阿波羅牙醫",
//     "會員身份": "A",
//     "opentime" :"下午5:00-下午9:00",
//     "coordinates": {"latitude": 25.0269895,"longitude": 121.5661619}
//   },
//   {
//     "區別": "北投區",
//     "detailAddress": "台北市北投區新市街27號",
//     "姓名": "曹永輝",
//     "性別": "男",
//     "生年月日": "0400405",
//     "education": "北醫",
//     "title": "新市牙醫",
//     "會員身份": "A",
//     "opentime" :"下午5:00-下午9:00",
//     "coordinates": {"latitude": 25.1320272,"longitude": 121.5019227}
//   },
//   {
//     "區別": "大安區",
//     "detailAddress": "台北市大安區信義路三段134巷58號1樓",
//     "姓名": "朱哉亮",
//     "性別": "男",
//     "生年月日": "0380902",
//     "education": "高醫",
//     "title": "慈恩牙醫",
//     "會員身份": "A",
//     "opentime" :"下午5:00-下午9:00",
//     "coordinates": {"latitude": 25.03009,"longitude": 121.539125}
//   },
//   {
//     "區別": "大安區",
//     "detailAddress": "台北市大安區和平東路二段201之1號2樓",
//     "姓名": "林定國",
//     "性別": "男",
//     "生年月日": "0370122",
//     "education": "台大",
//     "title": "定國牙醫",
//     "會員身份": "A",
//     "opentime" :"下午5:00-下午9:00",
//     "coordinates": {"latitude": 25.0252437,"longitude": 121.5423459}
//   },
//   {
//     "區別": "北投區",
//     "detailAddress": "台北市北投區石牌路一段138號",
//     "姓名": "劉順元",
//     "性別": "男",
//     "生年月日": "0420409",
//     "education": "高醫",
//     "title": "信安牙醫",
//     "會員身份": "A",
//     "opentime" :"下午5:00-下午9:00",
//     "coordinates": {"latitude": 25.1140573,"longitude": 121.5127398}
//   },
//   {
//     "區別": "中正區",
//     "detailAddress": "台北市中正區濟南路一段7號2樓",
//     "姓名": "賴文福",
//     "性別": "男",
//     "生年月日": "0390601",
//     "education": "北醫",
//     "title": "展望牙醫",
//     "會員身份": "A",
//     "opentime" :"下午5:00-下午9:00",
//     "coordinates": {"latitude": 25.042724,"longitude": 121.5219249}
//   },
//   {
//     "區別": "大安區",
//     "detailAddress": "台北市大安區仁愛路四段79號9樓、9樓之2",
//     "姓名": "馬正誠",
//     "性別": "男",
//     "生年月日": "0380527",
//     "education": "國防",
//     "title": "正誠牙醫",
//     "會員身份": "A",
//     "opentime" :"下午5:00-下午9:00",
//     "coordinates": {"latitude": 25.0381722,"longitude": 121.5474299}
//   },
//   {
//     "區別": "北投區",
//     "detailAddress": "台北市北投區光明路148-1號2樓",
//     "姓名": "王慶全",
//     "性別": "男",
//     "生年月日": "0420527",
//     "education": "中山",
//     "title": "慶全牙醫",
//     "會員身份": "A",
//     "opentime" :"下午5:00-下午9:00",
//     "coordinates": {"latitude": 25.1344085,"longitude": 121.5025155}
//   },
//   {
//     "區別": "大安區",
//     "detailAddress": "台北市大安區和平東路一段67號3樓",
//     "姓名": "劉惠卿",
//     "性別": "女",
//     "生年月日": "0381210",
//     "education": "北醫",
//     "title": "至善牙醫",
//     "會員身份": "A",
//     "opentime" :"下午5:00-下午9:00",
//     "coordinates": {"latitude": 25.0271559,"longitude": 121.5246605}
//   },
//   {
//     "區別": "信義區",
//     "detailAddress": "台北市信義區基隆路二段25-1號",
//     "姓名": "王秀俊",
//     "性別": "男",
//     "生年月日": "0410414",
//     "education": "中山",
//     "title": "正安牙醫",
//     "會員身份": "A",
//     "opentime" :"下午5:00-下午9:00",
//     "coordinates": {"latitude": 25.031759,"longitude": 121.5590209}
//   },
//   {
//     "區別": "中山區",
//     "detailAddress": "台北市中山區錦州街421號",
//     "姓名": "呂國富",
//     "性別": "男",
//     "生年月日": "0410919",
//     "education": "北醫",
//     "title": "大富牙醫",
//     "會員身份": "A",
//     "opentime" :"下午5:00-下午9:00",
//     "coordinates": {"latitude": 25.0603739,"longitude": 121.5422127}
//   },
//   {
//     "區別": "文山區",
//     "detailAddress": "台北市文山區木新路三段248號1樓",
//     "姓名": "陳世博",
//     "性別": "男",
//     "生年月日": "0411104",
//     "education": "中山",
//     "title": "大木柵陳牙醫",
//     "會員身份": "A",
//     "opentime" :"下午5:00-下午9:00",
//     "coordinates": {"latitude": 24.9814148,"longitude": 121.5588275}
//   },
//   {
//     "區別": "中山區",
//     "detailAddress": "台北市中山區民生東路二段120號",
//     "姓名": "李武弘",
//     "性別": "男",
//     "生年月日": "0311105",
//     "education": "北醫",
//     "title": "嘉新牙醫",
//     "會員身份": "A",
//     "opentime" :"下午5:00-下午9:00",
//     "coordinates": {"latitude": 25.0578226,"longitude": 121.531475}
//   },
//   {
//     "區別": "大同區",
//     "detailAddress": "台北市大同區南京西路185巷5號之2",
//     "姓名": "蕭正洋",
//     "性別": "男",
//     "生年月日": "0310807",
//     "education": "國防",
//     "title": "文山堂牙醫",
//     "會員身份": "A",
//     "opentime" :"下午5:00-下午9:00",
//     "coordinates": {"latitude": 25.054409,"longitude": 121.512361}
//   },
//   {
//     "區別": "信義區",
//     "detailAddress": "台北市信義區吳興街599號3樓",
//     "姓名": "張文正",
//     "性別": "男",
//     "生年月日": "0401030",
//     "education": "北醫",
//     "title": "佳曏牙醫",
//     "會員身份": "A",
//     "opentime" :"下午5:00-下午9:00",
//     "coordinates": {"latitude": 25.0220719,"longitude": 121.5691829}
//   },
//   {
//     "區別": "中山區",
//     "detailAddress": "台北市中山區中山北路一段96巷25號",
//     "姓名": "王凌洋",
//     "性別": "男",
//     "生年月日": "0350222",
//     "education": "高醫",
//     "title": "照安牙醫",
//     "會員身份": "A",
//     "opentime" :"下午5:00-下午9:00",
//     "coordinates": {"latitude": 25.0497713,"longitude": 121.5204714}
//   },
//   {
//     "區別": "中正區",
//     "detailAddress": "台北市中正區金門街9-6號",
//     "姓名": "蔡正興",
//     "性別": "男",
//     "生年月日": "0410805",
//     "education": "北醫",
//     "title": "杏安牙醫",
//     "會員身份": "A",
//     "opentime" :"下午5:00-下午9:00",
//     "coordinates": {"latitude": 25.0224836,"longitude": 121.5242694}
//   },
//   {
//     "區別": "大安區",
//     "detailAddress": "台北市大安區復興南路二段193巷7號1樓",
//     "姓名": "李湧泉",
//     "性別": "男",
//     "生年月日": "0400212",
//     "education": "高醫",
//     "title": "愛育牙醫",
//     "會員身份": "A",
//     "opentime" :"下午5:00-下午9:00",
//     "coordinates": {"latitude": 25.0266039,"longitude": 121.5439885}
//   },
//   {
//     "區別": "北投區",
//     "detailAddress": "台北市北投區明德路203-1號1F",
//     "姓名": "張光正",
//     "性別": "男",
//     "生年月日": "0411119",
//     "education": "中山",
//     "title": "光正牙醫",
//     "會員身份": "A",
//     "opentime" :"下午5:00-下午9:00",
//     "coordinates": {"latitude": 25.112089,"longitude": 121.521273}
//   },
//   {
//     "區別": "內湖區",
//     "detailAddress": "台北市內湖區內湖路一段335號2F",
//     "姓名": "陳裕泰",
//     "性別": "男",
//     "生年月日": "0371013",
//     "education": "高醫",
//     "title": "忠信牙醫",
//     "會員身份": "A",
//     "opentime" :"下午5:00-下午9:00",
//     "coordinates": {"latitude": 25.082318,"longitude": 121.5685845}
//   },
//   {
//     "區別": "萬華區",
//     "detailAddress": "台北市萬華區西園路二段71-1號",
//     "姓名": "潘再榮",
//     "性別": "男",
//     "生年月日": "0401207",
//     "education": "中山",
//     "title": "潘再榮牙醫",
//     "會員身份": "A",
//     "opentime" :"下午5:00-下午9:00",
//     "coordinates": {"latitude": 25.0308261,"longitude": 121.4969301}
//   },
//   {
//     "區別": "松山區",
//     "detailAddress": "台北市松山區延吉街26號",
//     "姓名": "王茂生",
//     "性別": "男",
//     "生年月日": "0400926",
//     "education": "中山",
//     "title": "新華南牙醫",
//     "會員身份": "A",
//     "opentime" :"下午5:00-下午9:00",
//     "coordinates": {"latitude": 25.0463839,"longitude": 121.5534486}
//   },
//   {
//     "區別": "萬華區",
//     "detailAddress": "台北市萬華區西園路二段300號1F",
//     "姓名": "周建堂",
//     "性別": "男",
//     "生年月日": "0400828",
//     "education": "中山",
//     "title": "周建堂牙醫",
//     "會員身份": "A",
//     "opentime" :"下午5:00-下午9:00",
//     "coordinates": {"latitude": 25.0264415,"longitude": 121.4928778}
//   },
//   {
//     "區別": "萬華區",
//     "detailAddress": "台北市萬華區貴陽街二段44號",
//     "姓名": "陳昭賓",
//     "性別": "男",
//     "生年月日": "0410625",
//     "education": "中山",
//     "title": "新格牙醫",
//     "會員身份": "A",
//     "opentime" :"下午5:00-下午9:00",
//     "coordinates": {"latitude": 25.0395284,"longitude": 121.5048669}
//   },
//   {
//     "區別": "松山區",
//     "detailAddress": "台北市松山區光復北路82號7樓",
//     "姓名": "吳碧礽",
//     "性別": "女",
//     "生年月日": "0381010",
//     "education": "中山",
//     "title": "碧礽牙醫",
//     "會員身份": "A",
//     "opentime" :"下午5:00-下午9:00",
//     "coordinates": {"latitude": 25.0502157,"longitude": 121.5576479}
//   },
//   {
//     "區別": "士林區",
//     "detailAddress": "台北市士林區天母東路63號2樓",
//     "姓名": "鄭文韶",
//     "性別": "男",
//     "生年月日": "0330805",
//     "education": "台大",
//     "title": "鄭文韶牙醫",
//     "會員身份": "A",
//     "opentime" :"下午5:00-下午9:00",
//     "coordinates": {"latitude": 25.1182745,"longitude": 121.5340675}
//   },
//   {
//     "區別": "中正區",
//     "detailAddress": "台北市中正區信義路二段213號2樓(西側門)",
//     "姓名": "陳蒼誠",
//     "性別": "男",
//     "生年月日": "0411109",
//     "education": "中山",
//     "title": "誠伸牙醫",
//     "會員身份": "A",
//     "opentime" :"下午5:00-下午9:00",
//     "coordinates": {"latitude": 25.033876,"longitude": 121.53042}
//   },
//   {
//     "區別": "南港區",
//     "detailAddress": "台北市南港區三重路30號",
//     "姓名": "曾子龍",
//     "性別": "男",
//     "生年月日": "0440405",
//     "education": "北醫",
//     "title": "德聲牙醫",
//     "會員身份": "A",
//     "opentime" :"下午5:00-下午9:00",
//     "coordinates": {"latitude": 25.0560516,"longitude": 121.6141383}
//   },
//   {
//     "區別": "中正區",
//     "detailAddress": "台北市中正區汀州路二段147號2樓",
//     "姓名": "黃鑠勳",
//     "性別": "男",
//     "生年月日": "0410527",
//     "education": "北醫",
//     "title": "同泰牙醫",
//     "會員身份": "A",
//     "opentime" :"下午5:00-下午9:00",
//     "coordinates": {"latitude": 25.0247026,"longitude": 121.5208472}
//   },
//   {
//     "區別": "中正區",
//     "detailAddress": "台北市中正區汀州路二段86號",
//     "姓名": "黃弘概",
//     "性別": "男",
//     "生年月日": "0351027",
//     "education": "北醫",
//     "title": "強弘牙醫",
//     "會員身份": "A",
//     "opentime" :"下午5:00-下午9:00",
//     "coordinates": {"latitude": 25.0249867,"longitude": 121.5189572}
//   },
//   {
//     "區別": "文山區",
//     "detailAddress": "台北市文山區羅斯福路五段194號2F",
//     "姓名": "陳明珠",
//     "性別": "女",
//     "生年月日": "0410313",
//     "education": "北醫",
//     "title": "杏昌牙醫",
//     "會員身份": "A",
//     "opentime" :"下午5:00-下午9:00",
//     "coordinates": {"latitude": 25.0036097,"longitude": 121.5384676}
//   },
//   {
//     "區別": "士林區",
//     "detailAddress": "台北市士林區德行東路46巷4弄3號1樓",
//     "姓名": "林廷祿",
//     "性別": "男",
//     "生年月日": "0400520",
//     "education": "中山",
//     "title": "第一牙醫",
//     "會員身份": "A",
//     "opentime" :"下午5:00-下午9:00",
//     "coordinates": {"latitude": 25.1066763,"longitude": 121.5261547}
//   },
//   {
//     "區別": "大同區",
//     "detailAddress": "台北市大同區酒泉街193號2樓",
//     "姓名": "許佳文",
//     "性別": "男",
//     "生年月日": "0420904",
//     "education": "中山",
//     "title": "杏仁牙醫",
//     "會員身份": "A",
//     "opentime" :"下午5:00-下午9:00",
//     "coordinates": {"latitude": 25.072226,"longitude": 121.512061}
//   },
//   {
//     "區別": "中正區",
//     "detailAddress": "台北市中正區懷寧街62號2樓202室",
//     "姓名": "蔡尚義",
//     "性別": "男",
//     "生年月日": "0340627",
//     "education": "高醫",
//     "title": "尚義牙醫",
//     "會員身份": "A",
//     "opentime" :"下午5:00-下午9:00",
//     "coordinates": {"latitude": 25.044258,"longitude": 121.51401}
//   },
//   {
//     "區別": "大安區",
//     "detailAddress": "台北市大安區延吉街233巷8號",
//     "姓名": "吳玲玲",
//     "性別": "女",
//     "生年月日": "0410402",
//     "education": "高醫",
//     "title": "松林牙醫",
//     "會員身份": "A",
//     "opentime" :"下午5:00-下午9:00",
//     "coordinates": {"latitude": 25.0368905,"longitude": 121.5558835}
//   },
//   {
//     "區別": "中正區",
//     "detailAddress": "台北市中正區南昌路二段206號2F-1",
//     "姓名": "張敏雄",
//     "性別": "男",
//     "生年月日": "0400721",
//     "education": "北醫",
//     "title": "聯嘉牙醫",
//     "會員身份": "A",
//     "opentime" :"下午5:00-下午9:00",
//     "coordinates": {"latitude": 25.0240379,"longitude": 121.52432}
//   },
//   {
//     "區別": "大安區",
//     "detailAddress": "台北市大安區忠孝東路四段276號2樓",
//     "姓名": "范廣偉",
//     "性別": "女",
//     "生年月日": "0410603",
//     "education": "高醫",
//     "title": "惠天牙醫",
//     "會員身份": "A",
//     "opentime" :"下午5:00-下午9:00",
//     "coordinates": {"latitude": 25.0411749,"longitude": 121.555145}
//   },
//   {
//     "區別": "士林區",
//     "detailAddress": "台北市士林區中山北路五段622號2F",
//     "姓名": "許崇智",
//     "性別": "男",
//     "生年月日": "0401020",
//     "education": "台大",
//     "title": "親親牙醫",
//     "會員身份": "A",
//     "opentime" :"下午5:00-下午9:00",
//     "coordinates": {"latitude": 25.0966916,"longitude": 121.5279305}
//   },
//   {
//     "區別": "士林區",
//     "detailAddress": "台北市士林區天母西路60號5樓",
//     "姓名": "林崇民",
//     "性別": "男",
//     "生年月日": "0370427",
//     "education": "北醫",
//     "title": "林崇民牙醫",
//     "會員身份": "A",
//     "opentime" :"下午5:00-下午9:00",
//     "coordinates": {"latitude": 25.1184916,"longitude": 121.5243532}
//   },
//   {
//     "區別": "中正區",
//     "detailAddress": "台北市中正區羅斯福路二段70號5樓之8",
//     "姓名": "溫念廉",
//     "性別": "男",
//     "生年月日": "0370514",
//     "education": "台大",
//     "title": "快安牙醫",
//     "會員身份": "A",
//     "opentime" :"下午5:00-下午9:00",
//     "coordinates": {"latitude": 25.027219,"longitude": 121.522008}
//   },
//   {
//     "區別": "松山區",
//     "detailAddress": "台北市松山區南京東路五段291巷4號",
//     "姓名": "陳肇俊",
//     "性別": "男",
//     "生年月日": "0410815",
//     "education": "中山",
//     "title": "西松牙醫",
//     "會員身份": "A",
//     "opentime" :"下午5:00-下午9:00",
//     "coordinates": {"latitude": 25.0517747,"longitude": 121.5660523}
//   },
//   {
//     "區別": "中山區",
//     "detailAddress": "台北市中山區長春路62號2樓",
//     "姓名": "林坤生",
//     "性別": "男",
//     "生年月日": "0390727",
//     "education": "中山",
//     "title": "欣林牙醫",
//     "會員身份": "A",
//     "opentime" :"下午5:00-下午9:00",
//     "coordinates": {"latitude": 25.054803,"longitude": 121.526148}
//   },
//   {
//     "區別": "萬華區",
//     "detailAddress": "台北市萬華區國興路12號",
//     "姓名": "張聖賢",
//     "性別": "男",
//     "生年月日": "0391231",
//     "education": "北醫",
//     "title": "仁真牙醫",
//     "會員身份": "A",
//     "opentime" :"下午5:00-下午9:00",
//     "coordinates": {"latitude": 25.0247155,"longitude": 121.5086786}
//   },
//   {
//     "區別": "中山區",
//     "detailAddress": "台北市中山區長春路133之1號",
//     "姓名": "陳美珠",
//     "性別": "女",
//     "生年月日": "0280610",
//     "education": "高醫",
//     "title": "中英牙醫",
//     "會員身份": "A",
//     "opentime" :"下午5:00-下午9:00",
//     "coordinates": {"latitude": 25.0549599,"longitude": 121.5310603}
//   },
//   {
//     "區別": "中山區",
//     "detailAddress": "台北市中山區林森北路112號3樓",
//     "姓名": "蘇嘉俊",
//     "性別": "男",
//     "生年月日": "0361020",
//     "education": "中山",
//     "title": "大衛牙醫",
//     "會員身份": "A",
//     "opentime" :"下午5:00-下午9:00",
//     "coordinates": {"latitude": 25.0511412,"longitude": 121.5249953}
//   },
//   {
//     "區別": "松山區",
//     "detailAddress": "台北市松山區八德路四段210-2號1F",
//     "姓名": "陳勝村",
//     "性別": "男",
//     "生年月日": "0390415",
//     "education": "中山",
//     "title": "健本牙醫",
//     "會員身份": "A",
//     "opentime" :"下午5:00-下午9:00",
//     "coordinates": {"latitude": 25.0486452,"longitude": 121.5644109}
//   },
//   {
//     "區別": "松山區",
//     "detailAddress": "台北市松山區八德路三段12巷7弄2號",
//     "姓名": "蕭嘉聲",
//     "性別": "男",
//     "生年月日": "0420908",
//     "education": "中山",
//     "title": "同心牙醫",
//     "會員身份": "A",
//     "opentime" :"下午5:00-下午9:00",
//     "coordinates": {"latitude": 25.046998,"longitude": 121.5508023}
//   },
//   {
//     "區別": "大安區",
//     "detailAddress": "台北市大安區忠孝東路三段248巷9號之1",
//     "姓名": "薛金彰",
//     "性別": "男",
//     "生年月日": "0380126",
//     "education": "國防",
//     "title": "懷生牙醫",
//     "會員身份": "A",
//     "opentime" :"下午5:00-下午9:00",
//     "coordinates": {"latitude": 25.0410322,"longitude": 121.5414259}
//   },
//   {
//     "區別": "士林區",
//     "detailAddress": "台北市士林區天母西路3號4樓之6",
//     "姓名": "黃宇琮",
//     "性別": "男",
//     "生年月日": "0420111",
//     "education": "北醫",
//     "title": "健群牙醫",
//     "會員身份": "A",
//     "opentime" :"下午5:00-下午9:00",
//     "coordinates": {"latitude": 25.1185654,"longitude": 121.5287049}
//   },
//   {
//     "區別": "中山區",
//     "detailAddress": "台北市中山區北安路608巷1號",
//     "姓名": "林樂生",
//     "性別": "男",
//     "生年月日": "0390724",
//     "education": "中山",
//     "title": "志安牙醫",
//     "會員身份": "A",
//     "opentime" :"下午5:00-下午9:00",
//     "coordinates": {"latitude": 25.0820257,"longitude": 121.5496972}
//   },
//   {
//     "區別": "大安區",
//     "detailAddress": "台北市大安區金華街118-6號3F",
//     "姓名": "吳清芳",
//     "性別": "男",
//     "生年月日": "0410624",
//     "education": "北醫",
//     "title": "金華牙醫",
//     "會員身份": "A",
//     "opentime" :"下午5:00-下午9:00",
//     "coordinates": {"latitude": 25.030045,"longitude": 121.526885}
//   },
//   {
//     "區別": "大安區",
//     "detailAddress": "台北市大安區富陽街104號",
//     "姓名": "黃俊宏",
//     "性別": "男",
//     "生年月日": "0410630",
//     "education": "高醫",
//     "title": "宗翰牙醫",
//     "會員身份": "A",
//     "opentime" :"下午5:00-下午9:00",
//     "coordinates": {"latitude": 25.0199581,"longitude": 121.5564237}
//   },
//   {
//     "區別": "中正區",
//     "detailAddress": "台北市中正區寧波西街65號",
//     "姓名": "陳登隆",
//     "性別": "男",
//     "生年月日": "0430210",
//     "education": "中山",
//     "title": "新光牙醫",
//     "會員身份": "A",
//     "opentime" :"下午5:00-下午9:00",
//     "coordinates": {"latitude": 25.0305769,"longitude": 121.517093}
//   },
//   {
//     "區別": "大安區",
//     "detailAddress": "台北市大安區信義路四段313號",
//     "姓名": "郭英強",
//     "性別": "男",
//     "生年月日": "0411007",
//     "education": "台大",
//     "title": "首都牙醫",
//     "會員身份": "A",
//     "opentime" :"下午5:00-下午9:00",
//     "coordinates": {"latitude": 25.0333838,"longitude": 121.5557723}
//   },
//   {
//     "區別": "文山區",
//     "detailAddress": "台北市文山區萬壽路11號",
//     "姓名": "曾堂榮",
//     "性別": "男",
//     "生年月日": "0410815",
//     "education": "中山",
//     "title": "寶島牙醫",
//     "會員身份": "A",
//     "opentime" :"下午5:00-下午9:00",
//     "coordinates": {"latitude": 24.9880096,"longitude": 121.5759051}
//   },
//   {
//     "區別": "中山區",
//     "detailAddress": "台北市中山區龍江路161號",
//     "姓名": "陳英順",
//     "性別": "男",
//     "生年月日": "0410520",
//     "education": "北醫",
//     "title": "明新牙醫",
//     "會員身份": "A",
//     "opentime" :"下午5:00-下午9:00",
//     "coordinates": {"latitude": 25.054487,"longitude": 121.5406283}
//   },
//   {
//     "區別": "大安區",
//     "detailAddress": "台北市大安區瑞安街65號",
//     "姓名": "康積強",
//     "性別": "男",
//     "生年月日": "0440729",
//     "education": "台大",
//     "title": "磊磊牙醫",
//     "會員身份": "A",
//     "opentime" :"下午5:00-下午9:00",
//     "coordinates": {"latitude": 25.028797,"longitude": 121.541742}
//   },
//   {
//     "區別": "南港區",
//     "detailAddress": "台北市南港區八德路四段772號",
//     "姓名": "黃通顯",
//     "性別": "男",
//     "生年月日": "0410710",
//     "education": "中山",
//     "title": "重生牙醫",
//     "會員身份": "A",
//     "opentime" :"下午5:00-下午9:00",
//     "coordinates": {"latitude": 25.0503802,"longitude": 121.5801457}
//   },
//   {
//     "區別": "內湖區",
//     "detailAddress": "台北市內湖區成功路三段162號",
//     "姓名": "趙少華",
//     "性別": "男",
//     "生年月日": "0431224",
//     "education": "北醫",
//     "title": "翠柏牙醫",
//     "會員身份": "A",
//     "opentime" :"下午5:00-下午9:00",
//     "coordinates": {"latitude": 25.080453,"longitude": 121.59016}
//   },
//   {
//     "區別": "萬華區",
//     "detailAddress": "台北市萬華區環河南路二段141號",
//     "姓名": "徐大森",
//     "性別": "男",
//     "生年月日": "0421212",
//     "education": "北醫",
//     "title": "如春牙醫",
//     "會員身份": "A",
//     "opentime" :"下午5:00-下午9:00",
//     "coordinates": {"latitude": 25.0338683,"longitude": 121.4932962}
//   },
//   {
//     "區別": "大安區",
//     "detailAddress": "台北市大安區泰順街60巷8號3樓",
//     "姓名": "黃書福",
//     "性別": "男",
//     "生年月日": "0410803",
//     "education": "北醫",
//     "title": "泰福牙醫",
//     "會員身份": "A",
//     "opentime" :"下午5:00-下午9:00",
//     "coordinates": {"latitude": 25.022313,"longitude": 121.5305279}
//   },
//   {
//     "區別": "萬華區",
//     "detailAddress": "台北市萬華區中華路二段532號",
//     "姓名": "林民健",
//     "性別": "男",
//     "生年月日": "0420416",
//     "education": "中山",
//     "title": "林民健牙醫",
//     "會員身份": "A",
//     "opentime" :"下午5:00-下午9:00",
//     "coordinates": {"latitude": 25.025209,"longitude": 121.508563}
//   },
//   {
//     "區別": "中山區",
//     "detailAddress": "台北市中山區建國北路二段116巷5號1樓",
//     "姓名": "蕭棟銓",
//     "性別": "男",
//     "生年月日": "0380310",
//     "education": "北醫",
//     "title": "群嚮牙醫",
//     "會員身份": "A",
//     "opentime" :"下午5:00-下午9:00",
//     "coordinates": {"latitude": 25.0588942,"longitude": 121.5359111}
//   },
//   {
//     "區別": "士林區",
//     "detailAddress": "台北市士林區天母東路8巷21-1號",
//     "姓名": "曾振文",
//     "性別": "男",
//     "生年月日": "0430628",
//     "education": "中山",
//     "title": "美加牙醫",
//     "會員身份": "A",
//     "opentime" :"下午5:00-下午9:00",
//     "coordinates": {"latitude": 25.117405,"longitude": 121.532031}
//   },
//   {
//     "區別": "大安區",
//     "detailAddress": "台北市大安區復興南路二段292號2樓",
//     "姓名": "吳早勝",
//     "性別": "男",
//     "生年月日": "0321009",
//     "education": "高醫",
//     "title": "吳致毅牙醫",
//     "會員身份": "A",
//     "opentime" :"下午5:00-下午9:00",
//     "coordinates": {"latitude": 25.0238959,"longitude": 121.5432229}
//   },
//   {
//     "區別": "大安區",
//     "detailAddress": "台北市大安區延吉街140號2F",
//     "姓名": "梁克典",
//     "性別": "男",
//     "生年月日": "0371013",
//     "education": "中山",
//     "title": "聖心牙醫",
//     "會員身份": "A",
//     "opentime" :"下午5:00-下午9:00",
//     "coordinates": {"latitude": 25.039721,"longitude": 121.5547225}
//   },
//   {
//     "區別": "松山區",
//     "detailAddress": "台北市松山區八德路三段225號2樓之4",
//     "姓名": "熊清良",
//     "性別": "男",
//     "生年月日": "0400827",
//     "education": "中山",
//     "title": "大統牙醫",
//     "會員身份": "A",
//     "opentime" :"下午5:00-下午9:00",
//     "coordinates": {"latitude": 25.048255,"longitude": 121.557021}
//   },
//   {
//     "區別": "信義區",
//     "detailAddress": "台北市信義區松山路253號",
//     "姓名": "官振國",
//     "性別": "男",
//     "生年月日": "0380505",
//     "education": "中山",
//     "title": "天成牙醫",
//     "會員身份": "A",
//     "opentime" :"下午5:00-下午9:00",
//     "coordinates": {"latitude": 25.044133,"longitude": 121.5780668}
//   },
//   {
//     "區別": "中正區",
//     "detailAddress": "台北市中正區博愛路68號2樓",
//     "姓名": "黃重誠",
//     "性別": "男",
//     "生年月日": "0430111",
//     "education": "台大",
//     "title": "黃牙醫",
//     "會員身份": "A",
//     "opentime" :"下午5:00-下午9:00",
//     "coordinates": {"latitude": 25.0449669,"longitude": 121.5113099}
//   },
//   {
//     "區別": "大安區",
//     "detailAddress": "台北市大安區羅斯福路三段117號",
//     "姓名": "吳俊傑",
//     "性別": "男",
//     "生年月日": "0420904",
//     "education": "北醫",
//     "title": "龍泉牙醫",
//     "會員身份": "A",
//     "opentime" :"下午5:00-下午9:00",
//     "coordinates": {"latitude": 25.0221865,"longitude": 121.5268526}
//   },
//   {
//     "區別": "文山區",
//     "detailAddress": "台北市文山區景興路238巷3號",
//     "姓名": "鄭育仁",
//     "性別": "男",
//     "生年月日": "0420828",
//     "education": "北醫",
//     "title": "仁泰牙醫",
//     "會員身份": "A",
//     "opentime" :"下午5:00-下午9:00",
//     "coordinates": {"latitude": 24.990616,"longitude": 121.54283}
//   },
//   {
//     "區別": "大同區",
//     "detailAddress": "台北市大同區延平北路三段34號",
//     "姓名": "鄭維明",
//     "性別": "男",
//     "生年月日": "0420819",
//     "education": "中山",
//     "title": "維明牙醫",
//     "會員身份": "A",
//     "opentime" :"下午5:00-下午9:00",
//     "coordinates": {"latitude": 25.0644099,"longitude": 121.511028}
//   },
//   {
//     "區別": "大安區",
//     "detailAddress": "台北市大安區安和路二段175號1樓",
//     "姓名": "林聰輝",
//     "性別": "男",
//     "生年月日": "0380326",
//     "education": "中山",
//     "title": "偉成牙醫",
//     "會員身份": "A",
//     "opentime" :"下午5:00-下午9:00",
//     "coordinates": {"latitude": 25.0278029,"longitude": 121.550073}
//   },
//   {
//     "區別": "大同區",
//     "detailAddress": "台北市大同區延平北路三段81號",
//     "姓名": "王兩順",
//     "性別": "男",
//     "生年月日": "0410824",
//     "education": "高醫",
//     "title": "順然牙醫",
//     "會員身份": "A",
//     "opentime" :"下午5:00-下午9:00",
//     "coordinates": {"latitude": 25.067105,"longitude": 121.511074}
//   },
//   {
//     "區別": "松山區",
//     "detailAddress": "台北市松山區敦化南路一段7號3樓",
//     "姓名": "王燕翔",
//     "性別": "男",
//     "生年月日": "0370814",
//     "education": "中山",
//     "title": "誠楷牙醫",
//     "會員身份": "A",
//     "opentime" :"下午5:00-下午9:00",
//     "coordinates": {"latitude": 25.0470674,"longitude": 121.5492472}
//   },
//   {
//     "區別": "大安區",
//     "detailAddress": "台北市大安區和平東路二段111號2F",
//     "姓名": "林憲昇",
//     "性別": "男",
//     "生年月日": "0410419",
//     "education": "台大",
//     "title": "新象牙醫",
//     "會員身份": "A",
//     "opentime" :"下午5:00-下午9:00",
//     "coordinates": {"latitude": 25.0254723,"longitude": 121.5405298}
//   },
//   {
//     "區別": "中山區",
//     "detailAddress": "台北市中山區中山北路二段84巷1號3樓",
//     "姓名": "周徐傳",
//     "性別": "男",
//     "生年月日": "0400413",
//     "education": "中山",
//     "title": "中二牙醫",
//     "會員身份": "A",
//     "opentime" :"下午5:00-下午9:00",
//     "coordinates": {"latitude": 25.0575719,"longitude": 121.5224599}
//   },
//   {
//     "區別": "中山區",
//     "detailAddress": "台北市中山區中山北路二段99號3樓",
//     "姓名": "林錦榮",
//     "性別": "男",
//     "生年月日": "0380918",
//     "education": "北醫",
//     "title": "林錦榮牙醫",
//     "會員身份": "A",
//     "opentime" :"下午5:00-下午9:00",
//     "coordinates": {"latitude": 25.0596568,"longitude": 121.5231404}
//   },
//   {
//     "區別": "中正區",
//     "detailAddress": "台北市中正區信義路二段161巷4號1樓",
//     "姓名": "翁連生",
//     "性別": "男",
//     "生年月日": "0420916",
//     "education": "高醫",
//     "title": "連生牙醫",
//     "會員身份": "A",
//     "opentime" :"下午5:00-下午9:00",
//     "coordinates": {"latitude": 25.034357,"longitude": 121.528819}
//   },
//   {
//     "區別": "大安區",
//     "detailAddress": "台北市大安區新生南路一段95號2樓",
//     "姓名": "潘國輝",
//     "性別": "男",
//     "生年月日": "0420129",
//     "education": "高醫",
//     "title": "潘國輝牙醫",
//     "會員身份": "A",
//     "opentime" :"下午5:00-下午9:00",
//     "coordinates": {"latitude": 25.0414116,"longitude": 121.5331077}
//   },
//   {
//     "區別": "信義區",
//     "detailAddress": "台北市信義區福德街195號",
//     "姓名": "鄒梅蘭",
//     "性別": "女",
//     "生年月日": "0410917",
//     "education": "台大",
//     "title": "全日牙醫",
//     "會員身份": "A",
//     "opentime" :"下午5:00-下午9:00",
//     "coordinates": {"latitude": 25.0383004,"longitude": 121.5844651}
//   },
//   {
//     "區別": "中山區",
//     "detailAddress": "台北市中山區民權東路二段152巷3號1樓",
//     "姓名": "李萬吉",
//     "性別": "男",
//     "生年月日": "0430927",
//     "education": "高醫",
//     "title": "陽安牙醫",
//     "會員身份": "A",
//     "opentime" :"下午5:00-下午9:00",
//     "coordinates": {"latitude": 25.0619685,"longitude": 121.534812}
//   },
//   {
//     "區別": "信義區",
//     "detailAddress": "台北市信義區福德街224號2F",
//     "姓名": "陳朝宏",
//     "性別": "男",
//     "生年月日": "0350113",
//     "education": "國防",
//     "title": "朝宏牙醫",
//     "會員身份": "A",
//     "opentime" :"下午5:00-下午9:00",
//     "coordinates": {"latitude": 25.0385322,"longitude": 121.5846207}
//   },
//   {
//     "區別": "松山區",
//     "detailAddress": "台北市松山區長春路500號2F",
//     "姓名": "蕭永蒼",
//     "性別": "男",
//     "生年月日": "0390817",
//     "education": "中山",
//     "title": "長泰牙醫",
//     "會員身份": "A",
//     "opentime" :"下午5:00-下午9:00",
//     "coordinates": {"latitude": 25.0543425,"longitude": 121.547544}
//   },
//   {
//     "區別": "松山區",
//     "detailAddress": "台北市松山區民權東路三段103巷1號1樓",
//     "姓名": "王世炫",
//     "性別": "男",
//     "生年月日": "0431211",
//     "education": "北醫",
//     "title": "立人牙醫",
//     "會員身份": "A",
//     "opentime" :"下午5:00-下午9:00",
//     "coordinates": {"latitude": 25.062901,"longitude": 121.545144}
//   },
//   {
//     "區別": "大安區",
//     "detailAddress": "台北市大安區和平東路三段318號",
//     "姓名": "朱文全",
//     "性別": "男",
//     "生年月日": "0411106",
//     "education": "北醫",
//     "title": "明泰牙醫",
//     "會員身份": "A",
//     "opentime" :"下午5:00-下午9:00",
//     "coordinates": {"latitude": 25.0200421,"longitude": 121.5569366}
//   },
//   {
//     "區別": "中山區",
//     "detailAddress": "台北市中山區興安街100號1樓",
//     "姓名": "吳瑞冬",
//     "性別": "男",
//     "生年月日": "0430619",
//     "education": "台大",
//     "title": "鑫牙醫",
//     "會員身份": "A",
//     "opentime" :"下午5:00-下午9:00",
//     "coordinates": {"latitude": 25.0558271,"longitude": 121.5428954}
//   },
//   {
//     "區別": "信義區",
//     "detailAddress": "台北市信義區永吉路344-1號1樓",
//     "姓名": "張家幸",
//     "性別": "男",
//     "生年月日": "0410316",
//     "education": "北醫",
//     "title": "錫口牙醫",
//     "會員身份": "A",
//     "opentime" :"下午5:00-下午9:00",
//     "coordinates": {"latitude": 25.0453447,"longitude": 121.5763164}
//   },
//   {
//     "區別": "中山區",
//     "detailAddress": "台北市中山區中山北路二段50巷45號",
//     "姓名": "李麒輝",
//     "性別": "男",
//     "生年月日": "0430123",
//     "education": "中山",
//     "title": "杏華牙醫",
//     "會員身份": "A",
//     "opentime" :"下午5:00-下午9:00",
//     "coordinates": {"latitude": 25.056376,"longitude": 121.52082}
//   },
//   {
//     "區別": "大安區",
//     "detailAddress": "台北市大安區延吉街162號2F",
//     "姓名": "賴俊憲",
//     "性別": "男",
//     "生年月日": "0361007",
//     "education": "中山",
//     "title": "杏和牙醫",
//     "會員身份": "A",
//     "opentime" :"下午5:00-下午9:00",
//     "coordinates": {"latitude": 25.0391032,"longitude": 121.5549332}
//   },
//   {
//     "區別": "大安區",
//     "detailAddress": "台北市大安區羅斯福路三段241號2樓",
//     "姓名": "張正毅",
//     "性別": "男",
//     "生年月日": "0380421",
//     "education": "中山",
//     "title": "翔麟牙醫",
//     "會員身份": "A",
//     "opentime" :"下午5:00-下午9:00",
//     "coordinates": {"latitude": 25.0193809,"longitude": 121.52993}
//   },
//   {
//     "區別": "中山區",
//     "detailAddress": "台北市中山區建國北路三段101號2樓",
//     "姓名": "詹重謀",
//     "性別": "男",
//     "生年月日": "0351002",
//     "education": "中山",
//     "title": "華齡牙醫",
//     "會員身份": "A",
//     "opentime" :"下午5:00-下午9:00",
//     "coordinates": {"latitude": 25.0661069,"longitude": 121.536392}
//   },
//   {
//     "區別": "萬華區",
//     "detailAddress": "台北市萬華區東園街130號",
//     "姓名": "周景璜",
//     "性別": "男",
//     "生年月日": "0390819",
//     "education": "中山",
//     "title": "日新牙醫",
//     "會員身份": "A",
//     "opentime" :"下午5:00-下午9:00",
//     "coordinates": {"latitude": 25.0237739,"longitude": 121.497369}
//   },
//   {
//     "區別": "大安區",
//     "detailAddress": "台北市大安區大安路二段17號",
//     "姓名": "黃守禮",
//     "性別": "男",
//     "生年月日": "0391222",
//     "education": "中山",
//     "title": "守禮牙醫",
//     "會員身份": "A",
//     "opentime" :"下午5:00-下午9:00",
//     "coordinates": {"latitude": 25.0322892,"longitude": 121.5461615}
//   },
//   {
//     "區別": "萬華區",
//     "detailAddress": "台北市萬華區東園街200號",
//     "姓名": "趙明元",
//     "性別": "男",
//     "生年月日": "0440619",
//     "education": "中山",
//     "title": "南和牙醫",
//     "會員身份": "A",
//     "opentime" :"下午5:00-下午9:00",
//     "coordinates": {"latitude": 25.0215711,"longitude": 121.498417}
//   },
//   {
//     "區別": "大安區",
//     "detailAddress": "台北市大安區信義路三段106號2樓之5",
//     "姓名": "郭力行",
//     "性別": "男",
//     "生年月日": "0411124",
//     "education": "中山",
//     "title": "群智牙醫",
//     "會員身份": "A",
//     "opentime" :"下午5:00-下午9:00",
//     "coordinates": {"latitude": 25.033269,"longitude": 121.538419}
//   },
//   {
//     "區別": "中山區",
//     "detailAddress": "台北市中山區中山北路二段77巷39號",
//     "姓名": "黃  天",
//     "性別": "男",
//     "生年月日": "0441217",
//     "education": "北醫",
//     "title": "天心牙醫",
//     "會員身份": "A",
//     "opentime" :"下午5:00-下午9:00",
//     "coordinates": {"latitude": 25.0576095,"longitude": 121.5248161}
//   },
//   {
//     "區別": "松山區",
//     "detailAddress": "台北市松山區撫遠街350之1號",
//     "姓名": "張友馨",
//     "性別": "女",
//     "生年月日": "0440303",
//     "education": "中山",
//     "title": "大友牙醫",
//     "會員身份": "A",
//     "opentime" :"下午5:00-下午9:00",
//     "coordinates": {"latitude": 25.0625773,"longitude": 121.5659525}
//   },
//   {
//     "區別": "北投區",
//     "detailAddress": "台北市北投區公館路109號",
//     "姓名": "陳文輝",
//     "性別": "男",
//     "生年月日": "0441226",
//     "education": "中山",
//     "title": "榮恩牙醫",
//     "會員身份": "A",
//     "opentime" :"下午5:00-下午9:00",
//     "coordinates": {"latitude": 25.13014,"longitude": 121.504949}
//   },
//   {
//     "區別": "信義區",
//     "detailAddress": "台北市信義區松山路496、504號",
//     "姓名": "柯明峰",
//     "性別": "男",
//     "生年月日": "0410112",
//     "education": "中山",
//     "title": "明仁牙醫",
//     "會員身份": "A",
//     "opentime" :"下午5:00-下午9:00",
//     "coordinates": {"latitude": 25.038441,"longitude": 121.57791}
//   },
//   {
//     "區別": "北投區",
//     "detailAddress": "台北市北投區尊賢街223號",
//     "姓名": "劉正之",
//     "性別": "男",
//     "生年月日": "0420722",
//     "education": "高醫",
//     "title": "啟仁牙醫",
//     "會員身份": "A",
//     "opentime" :"下午5:00-下午9:00",
//     "coordinates": {"latitude": 25.1156992,"longitude": 121.5077076}
//   },
//   {
//     "區別": "大安區",
//     "detailAddress": "台北市大安區忠孝東路三段251巷4弄10號",
//     "姓名": "陳志鴻",
//     "性別": "男",
//     "生年月日": "0420212",
//     "education": "高醫",
//     "title": "立大牙醫",
//     "會員身份": "A",
//     "opentime" :"下午5:00-下午9:00",
//     "coordinates": {"latitude": 25.0422704,"longitude": 121.541132}
//   },
//   {
//     "區別": "萬華區",
//     "detailAddress": "台北市萬華區西寧南路162號",
//     "姓名": "白錫玠",
//     "性別": "男",
//     "生年月日": "0421212",
//     "education": "中山",
//     "title": "白牙醫",
//     "會員身份": "A",
//     "opentime" :"下午5:00-下午9:00",
//     "coordinates": {"latitude": 25.0400197,"longitude": 121.506006}
//   },
//   {
//     "區別": "松山區",
//     "detailAddress": "台北市松山區南京東路四段75巷18號",
//     "姓名": "陳正斌",
//     "性別": "男",
//     "生年月日": "0460308",
//     "education": "高醫",
//     "title": "正斌牙醫",
//     "會員身份": "A",
//     "opentime" :"下午5:00-下午9:00",
//     "coordinates": {"latitude": 25.0524047,"longitude": 121.5536199}
//   },
//   {
//     "區別": "中山區",
//     "detailAddress": "台北市中山區大直街34巷14號1樓",
//     "姓名": "嚴松茂",
//     "性別": "男",
//     "生年月日": "0450603",
//     "education": "北醫",
//     "title": "嚴牙醫",
//     "會員身份": "A",
//     "opentime" :"下午5:00-下午9:00",
//     "coordinates": {"latitude": 25.0815891,"longitude": 121.5457657}
//   },
//   {
//     "區別": "南港區",
//     "detailAddress": "台北市南港區忠孝東路六段280號2樓",
//     "姓名": "陳弘J",
//     "性別": "男",
//     "生年月日": "0400712",
//     "education": "中山",
//     "title": "弘光牙醫",
//     "會員身份": "A",
//     "opentime" :"下午5:00-下午9:00",
//     "coordinates": {"latitude": 25.0490689,"longitude": 121.589268}
//   },
//   {
//     "區別": "中山區",
//     "detailAddress": "台北市中山區北安路621巷25號",
//     "姓名": "賴澤泉",
//     "性別": "男",
//     "生年月日": "0441010",
//     "education": "北醫",
//     "title": "睿智牙醫",
//     "會員身份": "A",
//     "opentime" :"下午5:00-下午9:00",
//     "coordinates": {"latitude": 25.0830693,"longitude": 121.5477384}
//   },
//   {
//     "區別": "大安區",
//     "detailAddress": "台北市大安區和平東路一段91號3F.3F-1.3F-2",
//     "姓名": "蘇明圳",
//     "性別": "男",
//     "生年月日": "0401020",
//     "education": "中山",
//     "title": "明圳齒顎矯正專科診所",
//     "會員身份": "A",
//     "opentime" :"下午5:00-下午9:00",
//     "coordinates": {"latitude": 25.026939,"longitude": 121.5257151}
//   },
//   {
//     "區別": "中山區",
//     "detailAddress": "台北市中山區南京東路一段132巷10號1樓",
//     "姓名": "楊一木",
//     "性別": "男",
//     "生年月日": "0441220",
//     "education": "北醫",
//     "title": "康福牙醫",
//     "會員身份": "A",
//     "opentime" :"下午5:00-下午9:00",
//     "coordinates": {"latitude": 25.0512459,"longitude": 121.526987}
//   },
//   {
//     "區別": "大安區",
//     "detailAddress": "台北市大安區永康街13巷1號2樓之1",
//     "姓名": "王誠良",
//     "性別": "男",
//     "生年月日": "0390925",
//     "education": "中山",
//     "title": "誠良牙醫",
//     "會員身份": "A",
//     "opentime" :"下午5:00-下午9:00",
//     "coordinates": {"latitude": 25.0326394,"longitude": 121.5299105}
//   },
//   {
//     "區別": "中山區",
//     "detailAddress": "台北市中山區吉林路251號2樓",
//     "姓名": "任惠民",
//     "性別": "男",
//     "生年月日": "0391210",
//     "education": "北醫",
//     "title": "任惠民牙醫",
//     "會員身份": "A",
//     "opentime" :"下午5:00-下午9:00",
//     "coordinates": {"latitude": 25.06155,"longitude": 121.5303894}
//   },
//   {
//     "區別": "中正區",
//     "detailAddress": "台北市中正區寧波西街78號2樓",
//     "姓名": "廖春美",
//     "性別": "女",
//     "生年月日": "0430330",
//     "education": "北醫",
//     "title": "廖春美牙醫",
//     "會員身份": "A",
//     "opentime" :"下午5:00-下午9:00",
//     "coordinates": {"latitude": 25.0299093,"longitude": 121.5164347}
//   },
//   {
//     "區別": "中山區",
//     "detailAddress": "台北市中山區北安路630巷5號1樓",
//     "姓名": "陳世芳",
//     "性別": "男",
//     "生年月日": "0430816",
//     "education": "中山",
//     "title": "恩慈牙醫",
//     "會員身份": "A",
//     "opentime" :"下午5:00-下午9:00",
//     "coordinates": {"latitude": 25.082889,"longitude": 121.549436}
//   },
//   {
//     "區別": "北投區",
//     "detailAddress": "台北市北投區義理街49巷6號",
//     "姓名": "鄭俊國",
//     "性別": "男",
//     "生年月日": "0421006",
//     "education": "中山",
//     "title": "幸福牙醫",
//     "會員身份": "A",
//     "opentime" :"下午5:00-下午9:00",
//     "coordinates": {"latitude": 25.1170456,"longitude": 121.5153583}
//   },
//   {
//     "區別": "內湖區",
//     "detailAddress": "台北市內湖區港墘路53號",
//     "姓名": "詹錦泉",
//     "性別": "男",
//     "生年月日": "0460710",
//     "education": "北醫",
//     "title": "興雅牙醫",
//     "會員身份": "A",
//     "opentime" :"下午5:00-下午9:00",
//     "coordinates": {"latitude": 25.0815832,"longitude": 121.5784483}
//   },
//   {
//     "區別": "萬華區",
//     "detailAddress": "台北市萬華區康定路136號2F",
//     "姓名": "陳邦安",
//     "性別": "男",
//     "生年月日": "0390831",
//     "education": "中山",
//     "title": "邦安牙醫",
//     "會員身份": "A",
//     "opentime" :"下午5:00-下午9:00",
//     "coordinates": {"latitude": 25.0400378,"longitude": 121.5018456}
//   },
//   {
//     "區別": "北投區",
//     "detailAddress": "台北市北投區西安街一段281巷6弄2號1F",
//     "姓名": "劉德彰",
//     "性別": "男",
//     "生年月日": "0431023",
//     "education": "高醫",
//     "title": "世界牙醫",
//     "會員身份": "A",
//     "opentime" :"下午5:00-下午9:00",
//     "coordinates": {"latitude": 25.1118586,"longitude": 121.5165427}
//   },
//   {
//     "區別": "大同區",
//     "detailAddress": "台北市大同區重慶北路二段235號",
//     "姓名": "吳宗裕",
//     "性別": "男",
//     "生年月日": "0420829",
//     "education": "北醫",
//     "title": "欣容牙醫",
//     "會員身份": "A",
//     "opentime" :"下午5:00-下午9:00",
//     "coordinates": {"latitude": 25.0621076,"longitude": 121.5137855}
//   },
//   {
//     "區別": "中正區",
//     "detailAddress": "台北市中正區許昌街30號3樓",
//     "姓名": "林泰武",
//     "性別": "男",
//     "生年月日": "0440306",
//     "education": "高醫",
//     "title": "華泰牙醫",
//     "會員身份": "A",
//     "opentime" :"下午5:00-下午9:00",
//     "coordinates": {"latitude": 25.0454166,"longitude": 121.5158347}
//   },
//   {
//     "區別": "萬華區",
//     "detailAddress": "台北市萬華區西園路一段214-3號2樓",
//     "姓名": "廖世仁",
//     "性別": "男",
//     "生年月日": "0391101",
//     "education": "中山",
//     "title": "水波牙醫",
//     "會員身份": "A",
//     "opentime" :"下午5:00-下午9:00",
//     "coordinates": {"latitude": 25.035654,"longitude": 121.4992099}
//   },
//   {
//     "區別": "大安區",
//     "detailAddress": "台北市大安區忠孝東路四段177號9樓之4",
//     "姓名": "周世永",
//     "性別": "男",
//     "生年月日": "0430201",
//     "education": "北醫",
//     "title": "永恩牙醫",
//     "會員身份": "A",
//     "opentime" :"下午5:00-下午9:00",
//     "coordinates": {"latitude": 25.041723,"longitude": 121.550626}
//   },
//   {
//     "區別": "信義區",
//     "detailAddress": "台北市信義區光復南路449-3號",
//     "姓名": "許宏德",
//     "性別": "男",
//     "生年月日": "0460727",
//     "education": "國防",
//     "title": "國泰牙醫",
//     "會員身份": "A",
//     "opentime" :"下午5:00-下午9:00",
//     "coordinates": {"latitude": 25.0348911,"longitude": 121.5577351}
//   },
//   {
//     "區別": "中山區",
//     "detailAddress": "台北市中山區中山北路一段58號3樓",
//     "姓名": "張文乾",
//     "性別": "男",
//     "生年月日": "0440817",
//     "education": "北醫",
//     "title": "張文乾牙醫",
//     "會員身份": "A",
//     "opentime" :"下午5:00-下午9:00",
//     "coordinates": {"latitude": 25.0485209,"longitude": 121.5205919}
//   },
//   {
//     "區別": "士林區",
//     "detailAddress": "台北市士林區延平北路五段277號",
//     "姓名": "周欽定",
//     "性別": "男",
//     "生年月日": "0430102",
//     "education": "北醫",
//     "title": "周欽定牙醫",
//     "會員身份": "A",
//     "opentime" :"下午5:00-下午9:00",
//     "coordinates": {"latitude": 25.0854466,"longitude": 121.5095274}
//   },
//   {
//     "區別": "中正區",
//     "detailAddress": "台北市中正區忠孝東路二段134巷22號",
//     "姓名": "林英俊",
//     "性別": "男",
//     "生年月日": "0450717",
//     "education": "北醫",
//     "title": "名家牙醫",
//     "會員身份": "A",
//     "opentime" :"下午5:00-下午9:00",
//     "coordinates": {"latitude": 25.0407596,"longitude": 121.5317038}
//   },
//   {
//     "區別": "萬華區",
//     "detailAddress": "台北市萬華區康定路160號4F",
//     "姓名": "黃孝忠",
//     "性別": "男",
//     "生年月日": "0450807",
//     "education": "北醫",
//     "title": "孝忠牙醫",
//     "會員身份": "A",
//     "opentime" :"下午5:00-下午9:00",
//     "coordinates": {"latitude": 25.0395488,"longitude": 121.5017868}
//   },
//   {
//     "區別": "文山區",
//     "detailAddress": "台北市文山區興隆路二段281號1樓",
//     "姓名": "蘇文慶",
//     "性別": "男",
//     "生年月日": "0441107",
//     "education": "高醫",
//     "title": "德佳牙醫",
//     "會員身份": "A",
//     "opentime" :"下午5:00-下午9:00",
//     "coordinates": {"latitude": 25.0016223,"longitude": 121.5528134}
//   },
//   {
//     "區別": "大安區",
//     "detailAddress": "台北市大安區復興南路一段133號2F",
//     "姓名": "蔡雅英",
//     "性別": "女",
//     "生年月日": "0420829",
//     "education": "中山",
//     "title": "廣大牙醫",
//     "會員身份": "A",
//     "opentime" :"下午5:00-下午9:00",
//     "coordinates": {"latitude": 25.042731,"longitude": 121.5442603}
//   },
//   {
//     "區別": "中正區",
//     "detailAddress": "台北市中正區寧波西街80號",
//     "姓名": "謝志明",
//     "性別": "男",
//     "生年月日": "0430612",
//     "education": "北醫",
//     "title": "志明牙醫",
//     "會員身份": "A",
//     "opentime" :"下午5:00-下午9:00",
//     "coordinates": {"latitude": 25.029868,"longitude": 121.5161306}
//   },
//   {
//     "區別": "大安區",
//     "detailAddress": "台北市大安區忠孝東路四段162號6樓",
//     "姓名": "陳旭君",
//     "性別": "女",
//     "生年月日": "0450902",
//     "education": "中山",
//     "title": "理想家牙醫",
//     "會員身份": "A",
//     "opentime" :"下午5:00-下午9:00",
//     "coordinates": {"latitude": 25.0412879,"longitude": 121.550294}
//   },
//   {
//     "區別": "松山區",
//     "detailAddress": "台北市松山區南京東路五段54號2樓",
//     "姓名": "陳秀津",
//     "性別": "女",
//     "生年月日": "0460919",
//     "education": "北醫",
//     "title": "竹君牙醫",
//     "會員身份": "A",
//     "opentime" :"下午5:00-下午9:00",
//     "coordinates": {"latitude": 25.051285,"longitude": 121.5601899}
//   },
//   {
//     "區別": "中山區",
//     "detailAddress": "台北市中山區中山北路一段104號",
//     "姓名": "張永恭",
//     "性別": "男",
//     "生年月日": "0371009",
//     "education": "北醫",
//     "title": "張永恭牙醫",
//     "會員身份": "A",
//     "opentime" :"下午5:00-下午9:00",
//     "coordinates": {"latitude": 25.049603,"longitude": 121.5212739}
//   },
//   {
//     "區別": "士林區",
//     "detailAddress": "台北市士林區延平北路六段158、162號1樓",
//     "姓名": "黃雅秀",
//     "性別": "女",
//     "生年月日": "0470729",
//     "education": "北醫",
//     "title": "宏仁牙醫",
//     "會員身份": "A",
//     "opentime" :"下午5:00-下午9:00",
//     "coordinates": {"latitude": 25.0894894,"longitude": 121.5074743}
//   },
//   {
//     "區別": "松山區",
//     "detailAddress": "台北市松山區復興北路73號2樓",
//     "姓名": "尤文鴻",
//     "性別": "男",
//     "生年月日": "0351211",
//     "education": "北醫",
//     "title": "康士美牙醫",
//     "會員身份": "A",
//     "opentime" :"下午5:00-下午9:00",
//     "coordinates": {"latitude": 25.051053,"longitude": 121.5442361}
//   },
//   {
//     "區別": "中山區",
//     "detailAddress": "台北市中山區中山北路二段42巷6號3樓",
//     "姓名": "吳昌明",
//     "性別": "男",
//     "生年月日": "0450917",
//     "education": "北醫",
//     "title": "常青牙醫",
//     "會員身份": "A",
//     "opentime" :"下午5:00-下午9:00",
//     "coordinates": {"latitude": 25.0545429,"longitude": 121.5220929}
//   },
//   {
//     "區別": "士林區",
//     "detailAddress": "台北市士林區德行東路6號",
//     "姓名": "高鴻楷",
//     "性別": "男",
//     "生年月日": "0410218",
//     "education": "北醫",
//     "title": "慶仁牙醫",
//     "會員身份": "A",
//     "opentime" :"下午5:00-下午9:00",
//     "coordinates": {"latitude": 25.1063174,"longitude": 121.5253896}
//   },
//   {
//     "區別": "士林區",
//     "detailAddress": "台北市士林區華齡街14號",
//     "姓名": "詹克成",
//     "性別": "男",
//     "生年月日": "0431105",
//     "education": "北醫",
//     "title": "新民牙醫",
//     "會員身份": "A",
//     "opentime" :"下午5:00-下午9:00",
//     "coordinates": {"latitude": 25.0829672,"longitude": 121.519571}
//   },
//   {
//     "區別": "松山區",
//     "detailAddress": "台北市松山區民生東路五段222號1樓",
//     "姓名": "丘  能",
//     "性別": "男",
//     "生年月日": "0430926",
//     "education": "北醫",
//     "title": "丘牙醫",
//     "會員身份": "A",
//     "opentime" :"下午5:00-下午9:00",
//     "coordinates": {"latitude": 25.0588871,"longitude": 121.5654326}
//   },
//   {
//     "區別": "文山區",
//     "detailAddress": "台北市文山區羅斯福路六段234之1號2樓",
//     "姓名": "郭樹習",
//     "性別": "男",
//     "生年月日": "0441029",
//     "education": "北醫",
//     "title": "協和牙醫",
//     "會員身份": "A",
//     "opentime" :"下午5:00-下午9:00",
//     "coordinates": {"latitude": 24.9924086,"longitude": 121.5403603}
//   },
//   {
//     "區別": "中山區",
//     "detailAddress": "台北市中山區新生北路一段87號1樓",
//     "姓名": "陳泰成",
//     "性別": "男",
//     "生年月日": "0400101",
//     "education": "中山",
//     "title": "吉安牙醫",
//     "會員身份": "A",
//     "opentime" :"下午5:00-下午9:00",
//     "coordinates": {"latitude": 25.0513179,"longitude": 121.5281869}
//   },
//   {
//     "區別": "文山區",
//     "detailAddress": "台北市文山區木柵路一段267號",
//     "姓名": "張文伯",
//     "性別": "男",
//     "生年月日": "0400321",
//     "education": "中山",
//     "title": "北持牙醫",
//     "會員身份": "A",
//     "opentime" :"下午5:00-下午9:00",
//     "coordinates": {"latitude": 24.98816,"longitude": 121.5533847}
//   },
//   {
//     "區別": "中山區",
//     "detailAddress": "台北市中山區錦州街327號1樓",
//     "姓名": "陳錫潭",
//     "性別": "男",
//     "生年月日": "0430208",
//     "education": "北醫",
//     "title": "崧江牙醫",
//     "會員身份": "A",
//     "opentime" :"下午5:00-下午9:00",
//     "coordinates": {"latitude": 25.0603363,"longitude": 121.5388244}
//   },
//   {
//     "區別": "大同區",
//     "detailAddress": "台北市大同區延平北路二段243號2樓",
//     "姓名": "陳怡宏",
//     "性別": "男",
//     "生年月日": "0430913",
//     "education": "中山",
//     "title": "宏偉牙醫",
//     "會員身份": "A",
//     "opentime" :"下午5:00-下午9:00",
//     "coordinates": {"latitude": 25.0621154,"longitude": 121.511396}
//   },
//   {
//     "區別": "文山區",
//     "detailAddress": "台北市文山區興隆路二段120號1、2樓",
//     "姓名": "詹勳政",
//     "性別": "男",
//     "生年月日": "0441022",
//     "education": "北醫",
//     "title": "詹牙醫",
//     "會員身份": "A",
//     "opentime" :"下午5:00-下午9:00",
//     "coordinates": {"latitude": 25.000896,"longitude": 121.550303}
//   },
//   {
//     "區別": "北投區",
//     "detailAddress": "台北市北投區光明路74號",
//     "姓名": "林明輝",
//     "性別": "男",
//     "生年月日": "0411201",
//     "education": "中山",
//     "title": "宏恩牙醫",
//     "會員身份": "A",
//     "opentime" :"下午5:00-下午9:00",
//     "coordinates": {"latitude": 25.1329042,"longitude": 121.5004417}
//   },
//   {
//     "區別": "中山區",
//     "detailAddress": "台北市中山區興安街51-7號",
//     "姓名": "楊明德",
//     "性別": "男",
//     "生年月日": "0440116",
//     "education": "中山",
//     "title": "祐德牙醫",
//     "會員身份": "A",
//     "opentime" :"下午5:00-下午9:00",
//     "coordinates": {"latitude": 25.0562939,"longitude": 121.541356}
//   },
//   {
//     "區別": "大安區",
//     "detailAddress": "台北市大安區安和路一段135巷18號",
//     "姓名": "李欣政",
//     "性別": "男",
//     "生年月日": "0420709",
//     "education": "北醫",
//     "title": "欣民牙醫",
//     "會員身份": "A",
//     "opentime" :"下午5:00-下午9:00",
//     "coordinates": {"latitude": 25.0341676,"longitude": 121.55355}
//   },
//   {
//     "區別": "中山區",
//     "detailAddress": "台北市中山區龍江路364號1F",
//     "姓名": "陳建勳",
//     "性別": "男",
//     "生年月日": "0431016",
//     "education": "台大",
//     "title": "百年牙醫",
//     "會員身份": "A",
//     "opentime" :"下午5:00-下午9:00",
//     "coordinates": {"latitude": 25.0662642,"longitude": 121.5408224}
//   },
//   {
//     "區別": "中正區",
//     "detailAddress": "台北市中正區杭州南路二段54號",
//     "姓名": "王英哲",
//     "性別": "男",
//     "生年月日": "0350527",
//     "education": "中山",
//     "title": "英哲牙醫",
//     "會員身份": "A",
//     "opentime" :"下午5:00-下午9:00",
//     "coordinates": {"latitude": 25.0304251,"longitude": 121.5220508}
//   },
//   {
//     "區別": "萬華區",
//     "detailAddress": "台北市萬華區桂林路122-2號",
//     "姓名": "陳榮熙",
//     "性別": "男",
//     "生年月日": "0380220",
//     "education": "高醫",
//     "title": "桂林牙醫",
//     "會員身份": "A",
//     "opentime" :"下午5:00-下午9:00",
//     "coordinates": {"latitude": 25.0382876,"longitude": 121.4991991}
//   },
//   {
//     "區別": "士林區",
//     "detailAddress": "台北市士林區中山北路六段168號2樓",
//     "姓名": "陳嘉恭",
//     "性別": "男",
//     "生年月日": "0430930",
//     "education": "高醫",
//     "title": "嘉民牙醫",
//     "會員身份": "A",
//     "opentime" :"下午5:00-下午9:00",
//     "coordinates": {"latitude": 25.1070738,"longitude": 121.5252061}
//   },
//   {
//     "區別": "萬華區",
//     "detailAddress": "台北市萬華區寶興街105號",
//     "姓名": "高坤源",
//     "性別": "男",
//     "生年月日": "0401211",
//     "education": "北醫",
//     "title": "德泰牙醫",
//     "會員身份": "A",
//     "opentime" :"下午5:00-下午9:00",
//     "coordinates": {"latitude": 25.0255958,"longitude": 121.4946844}
//   },
//   {
//     "區別": "大安區",
//     "detailAddress": "台北市大安區延吉街242號",
//     "姓名": "黃明仁",
//     "性別": "男",
//     "生年月日": "0430811",
//     "education": "中山",
//     "title": "黃明仁牙醫",
//     "會員身份": "A",
//     "opentime" :"下午5:00-下午9:00",
//     "coordinates": {"latitude": 25.0356983,"longitude": 121.55553}
//   },
//   {
//     "區別": "大安區",
//     "detailAddress": "台北市大安區仁愛路四段137號2樓",
//     "姓名": "楊俊杰",
//     "性別": "男",
//     "生年月日": "0390925",
//     "education": "台大",
//     "title": "名流牙醫",
//     "會員身份": "A",
//     "opentime" :"下午5:00-下午9:00",
//     "coordinates": {"latitude": 25.038152,"longitude": 121.550779}
//   },
//   {
//     "區別": "內湖區",
//     "detailAddress": "台北市內湖區金龍路150號1樓",
//     "姓名": "黃振道",
//     "性別": "男",
//     "生年月日": "0400613",
//     "education": "國防",
//     "title": "湖山牙醫",
//     "會員身份": "A",
//     "opentime" :"下午5:00-下午9:00",
//     "coordinates": {"latitude": 25.0860621,"longitude": 121.5892805}
//   },
//   {
//     "區別": "大同區",
//     "detailAddress": "台北市大同區長安西路246號2樓",
//     "姓名": "姚瓊瑜",
//     "性別": "女",
//     "生年月日": "0350329",
//     "education": "台大",
//     "title": "瑞和牙醫",
//     "會員身份": "A",
//     "opentime" :"下午5:00-下午9:00",
//     "coordinates": {"latitude": 25.051569,"longitude": 121.513673}
//   },
//   {
//     "區別": "中山區",
//     "detailAddress": "台北市中山區八德路二段297號",
//     "姓名": "傅寶瑞",
//     "性別": "男",
//     "生年月日": "0420815",
//     "education": "高醫",
//     "title": "傅牙醫",
//     "會員身份": "A",
//     "opentime" :"下午5:00-下午9:00",
//     "coordinates": {"latitude": 25.047306,"longitude": 121.542377}
//   },
//   {
//     "區別": "大安區",
//     "detailAddress": "台北市大安區敦化南路二段88號1樓、86號2樓",
//     "姓名": "陳桔旺",
//     "性別": "男",
//     "生年月日": "0460619",
//     "education": "中山",
//     "title": "長青牙醫",
//     "會員身份": "A",
//     "opentime" :"下午5:00-下午9:00",
//     "coordinates": {"latitude": 25.0286129,"longitude": 121.548311}
//   },
//   {
//     "區別": "信義區",
//     "detailAddress": "台北市信義區和平東路三段341巷15號1樓",
//     "姓名": "蔡朝智",
//     "性別": "男",
//     "生年月日": "0440630",
//     "education": "北醫",
//     "title": "大春牙醫",
//     "會員身份": "A",
//     "opentime" :"下午5:00-下午9:00",
//     "coordinates": {"latitude": 25.0209583,"longitude": 121.5571867}
//   },
//   {
//     "區別": "中正區",
//     "detailAddress": "台北市中正區信義路二段67號1樓",
//     "姓名": "潘義隆",
//     "性別": "男",
//     "生年月日": "0451010",
//     "education": "中山",
//     "title": "康平牙醫",
//     "會員身份": "A",
//     "opentime" :"下午5:00-下午9:00",
//     "coordinates": {"latitude": 25.034709,"longitude": 121.526367}
//   },
//   {
//     "區別": "松山區",
//     "detailAddress": "台北市松山區民權東路三段160巷24號",
//     "姓名": "王將輝",
//     "性別": "男",
//     "生年月日": "0340426",
//     "education": "國防",
//     "title": "王誌牙醫",
//     "會員身份": "A",
//     "opentime" :"下午5:00-下午9:00",
//     "coordinates": {"latitude": 25.0599975,"longitude": 121.5468563}
//   },
//   {
//     "區別": "中山區",
//     "detailAddress": "台北市中山區龍江街250號",
//     "姓名": "陳柏芬",
//     "性別": "男",
//     "生年月日": "0360220",
//     "education": "中山",
//     "title": "柏齡牙醫",
//     "會員身份": "A",
//     "opentime" :"下午5:00-下午9:00",
//     "coordinates": {"latitude": 25.0593184,"longitude": 121.540572}
//   },
//   {
//     "區別": "中正區",
//     "detailAddress": "台北市中正區汀州路一段235號",
//     "姓名": "陳宏明",
//     "性別": "男",
//     "生年月日": "0421115",
//     "education": "台大",
//     "title": "中明牙醫",
//     "會員身份": "A",
//     "opentime" :"下午5:00-下午9:00",
//     "coordinates": {"latitude": 25.026697,"longitude": 121.5125321}
//   },
//   {
//     "區別": "大同區",
//     "detailAddress": "台北市大同區延平北路二段61巷20號1樓",
//     "姓名": "陳福進",
//     "性別": "男",
//     "生年月日": "0470314",
//     "education": "中山",
//     "title": "福進牙醫",
//     "會員身份": "A",
//     "opentime" :"下午5:00-下午9:00",
//     "coordinates": {"latitude": 25.0554731,"longitude": 121.5123315}
//   },
//   {
//     "區別": "大同區",
//     "detailAddress": "台北市大同區民權西路144巷13號1樓",
//     "姓名": "林明富",
//     "性別": "男",
//     "生年月日": "0390221",
//     "education": "北醫",
//     "title": "劍橋牙醫",
//     "會員身份": "A",
//     "opentime" :"下午5:00-下午9:00",
//     "coordinates": {"latitude": 25.061816,"longitude": 121.5160107}
//   },
//   {
//     "區別": "大同區",
//     "detailAddress": "台北市大同區民權西路144巷1、3號",
//     "姓名": "陳怡仁",
//     "性別": "男",
//     "生年月日": "0430913",
//     "education": "中山",
//     "title": "仁偉牙醫",
//     "會員身份": "A",
//     "opentime" :"下午5:00-下午9:00",
//     "coordinates": {"latitude": 25.0623011,"longitude": 121.516067}
//   },
//   {
//     "區別": "大安區",
//     "detailAddress": "台北市大安區金華街199巷1弄8號",
//     "姓名": "吳漢卿",
//     "性別": "男",
//     "生年月日": "0410912",
//     "education": "北醫",
//     "title": "麗水牙醫",
//     "會員身份": "A",
//     "opentime" :"下午5:00-下午9:00",
//     "coordinates": {"latitude": 25.030233,"longitude": 121.528427}
//   },
//   {
//     "區別": "士林區",
//     "detailAddress": "台北市士林區延平北路五段163巷7號",
//     "姓名": "高鈺倉",
//     "性別": "男",
//     "生年月日": "0410530",
//     "education": "中山",
//     "title": "信美牙醫",
//     "會員身份": "A",
//     "opentime" :"下午5:00-下午9:00",
//     "coordinates": {"latitude": 25.0825811,"longitude": 121.5097138}
//   },
//   {
//     "區別": "大安區",
//     "detailAddress": "台北市大安區復興南路二段110號1樓",
//     "姓名": "盧立祥",
//     "性別": "男",
//     "生年月日": "0440504",
//     "education": "北醫",
//     "title": "立祥牙醫",
//     "會員身份": "A",
//     "opentime" :"下午5:00-下午9:00",
//     "coordinates": {"latitude": 25.0294939,"longitude": 121.5433001}
//   },
//   {
//     "區別": "中山區",
//     "detailAddress": "台北市中山區中山北路二段59巷56號",
//     "姓名": "楊齊民",
//     "性別": "男",
//     "生年月日": "0460309",
//     "education": "台大",
//     "title": "永固牙醫",
//     "會員身份": "A",
//     "opentime" :"下午5:00-下午9:00",
//     "coordinates": {"latitude": 25.055796,"longitude": 121.524927}
//   },
//   {
//     "區別": "大安區",
//     "detailAddress": "台北市大安區仁愛路四段390號2樓",
//     "姓名": "王宏榮",
//     "性別": "男",
//     "生年月日": "0430411",
//     "education": "北醫",
//     "title": "復光牙醫",
//     "會員身份": "A",
//     "opentime" :"下午5:00-下午9:00",
//     "coordinates": {"latitude": 25.0373269,"longitude": 121.556527}
//   },
//   {
//     "區別": "大安區",
//     "detailAddress": "台北市大安區信義路四段179號1樓、181號2樓",
//     "姓名": "李幸南",
//     "性別": "男",
//     "生年月日": "0391120",
//     "education": "高醫",
//     "title": "國安牙醫",
//     "會員身份": "A",
//     "opentime" :"下午5:00-下午9:00",
//     "coordinates": {"latitude": 25.0333756,"longitude": 121.550673}
//   },
//   {
//     "區別": "大安區",
//     "detailAddress": "台北市大安區忠孝東路三段197-4號4樓",
//     "姓名": "程文政",
//     "性別": "男",
//     "生年月日": "0440314",
//     "education": "北醫",
//     "title": "尚群牙醫",
//     "會員身份": "A",
//     "opentime" :"下午5:00-下午9:00",
//     "coordinates": {"latitude": 25.0419526,"longitude": 121.5388144}
//   },
//   {
//     "區別": "大安區",
//     "detailAddress": "台北市大安區安居街46巷1號",
//     "姓名": "孫志堅",
//     "性別": "男",
//     "生年月日": "0430919",
//     "education": "高醫",
//     "title": "安居牙醫",
//     "會員身份": "A",
//     "opentime" :"下午5:00-下午9:00",
//     "coordinates": {"latitude": 25.0205548,"longitude": 121.5541281}
//   },
//   {
//     "區別": "內湖區",
//     "detailAddress": "台北市內湖區民權東路六段102號1樓、B1",
//     "姓名": "羅志光",
//     "性別": "男",
//     "生年月日": "0421118",
//     "education": "北醫",
//     "title": "光美牙醫",
//     "會員身份": "A",
//     "opentime" :"下午5:00-下午9:00",
//     "coordinates": {"latitude": 25.0687935,"longitude": 121.5865783}
//   },
//   {
//     "區別": "松山區",
//     "detailAddress": "台北市松山區南京東路四段172號",
//     "姓名": "羅光二",
//     "性別": "男",
//     "生年月日": "0350128",
//     "education": "中山",
//     "title": "光泰牙醫",
//     "會員身份": "A",
//     "opentime" :"下午5:00-下午9:00",
//     "coordinates": {"latitude": 25.0512799,"longitude": 121.556863}
//   },
//   {
//     "區別": "大安區",
//     "detailAddress": "台北市大安區東豐街56號1F",
//     "姓名": "蔡榮德",
//     "性別": "男",
//     "生年月日": "0440725",
//     "education": "高醫",
//     "title": "蔡牙醫",
//     "會員身份": "A",
//     "opentime" :"下午5:00-下午9:00",
//     "coordinates": {"latitude": 25.0359151,"longitude": 121.5473876}
//   },
//   {
//     "區別": "中正區",
//     "detailAddress": "台北市中正區南昌路一段37號2樓",
//     "姓名": "蔣之陸",
//     "性別": "男",
//     "生年月日": "0391125",
//     "education": "中山",
//     "title": "逢生牙醫",
//     "會員身份": "A",
//     "opentime" :"下午5:00-下午9:00",
//     "coordinates": {"latitude": 25.0316209,"longitude": 121.517083}
//   },
//   {
//     "區別": "內湖區",
//     "detailAddress": "台北市內湖區文德路2號3樓",
//     "姓名": "朱健漳",
//     "性別": "男",
//     "生年月日": "0440812",
//     "education": "中山",
//     "title": "大方牙醫",
//     "會員身份": "A",
//     "opentime" :"下午5:00-下午9:00",
//     "coordinates": {"latitude": 25.0784774,"longitude": 121.5788482}
//   },
//   {
//     "區別": "大安區",
//     "detailAddress": "台北市大安區忠孝東路四段205巷9號2樓",
//     "姓名": "黃嫊媜",
//     "性別": "女",
//     "生年月日": "0481108",
//     "education": "北醫",
//     "title": "明道牙醫",
//     "會員身份": "A",
//     "opentime" :"下午5:00-下午9:00",
//     "coordinates": {"latitude": 25.0422519,"longitude": 121.5520119}
//   },
//   {
//     "區別": "內湖區",
//     "detailAddress": "台北市內湖區民權東路六段126號",
//     "姓名": "陳建樹",
//     "性別": "男",
//     "生年月日": "0450210",
//     "education": "北醫",
//     "title": "名嘉牙醫",
//     "會員身份": "A",
//     "opentime" :"下午5:00-下午9:00",
//     "coordinates": {"latitude": 25.068842,"longitude": 121.587465}
//   },
//   {
//     "區別": "信義區",
//     "detailAddress": "台北市信義區信義路六段46號",
//     "姓名": "曾明清",
//     "性別": "男",
//     "生年月日": "0461101",
//     "education": "北醫",
//     "title": "明清牙醫",
//     "會員身份": "A",
//     "opentime" :"下午5:00-下午9:00",
//     "coordinates": {"latitude": 25.034516,"longitude": 121.576111}
//   },
//   {
//     "區別": "中山區",
//     "detailAddress": "台北市中山區龍江路275號1樓",
//     "姓名": "陳錫福",
//     "性別": "男",
//     "生年月日": "0450625",
//     "education": "中山",
//     "title": "佳佳牙醫",
//     "會員身份": "A",
//     "opentime" :"下午5:00-下午9:00",
//     "coordinates": {"latitude": 25.0596383,"longitude": 121.540843}
//   },
//   {
//     "區別": "士林區",
//     "detailAddress": "台北市士林區華齡街69號",
//     "姓名": "呂  雯",
//     "性別": "女",
//     "生年月日": "0470731",
//     "education": "高醫",
//     "title": "人仁牙醫",
//     "會員身份": "A",
//     "opentime" :"下午5:00-下午9:00",
//     "coordinates": {"latitude": 25.0847607,"longitude": 121.5192824}
//   },
//   {
//     "區別": "大安區",
//     "detailAddress": "台北市大安區安和路二段69巷8號",
//     "姓名": "鄭道鴻",
//     "性別": "男",
//     "生年月日": "0450901",
//     "education": "中山",
//     "title": "三普牙醫",
//     "會員身份": "A",
//     "opentime" :"下午5:00-下午9:00",
//     "coordinates": {"latitude": 25.0303912,"longitude": 121.5527}
//   },
//   {
//     "區別": "信義區",
//     "detailAddress": "台北市信義區忠孝東路五段508之8號2樓",
//     "姓名": "林峻峰",
//     "性別": "男",
//     "生年月日": "0410808",
//     "education": "中山",
//     "title": "安人牙醫",
//     "會員身份": "A",
//     "opentime" :"下午5:00-下午9:00",
//     "coordinates": {"latitude": 25.0409809,"longitude": 121.5785737}
//   },
//   {
//     "區別": "北投區",
//     "detailAddress": "台北市北投區石牌路一段63號",
//     "姓名": "何思坤",
//     "性別": "男",
//     "生年月日": "0450507",
//     "education": "高醫",
//     "title": "何思坤牙醫",
//     "會員身份": "A",
//     "opentime" :"下午5:00-下午9:00",
//     "coordinates": {"latitude": 25.1135117,"longitude": 121.5109065}
//   },
//   {
//     "區別": "中正區",
//     "detailAddress": "台北市中正區襄陽路43號",
//     "姓名": "林陳絮芳",
//     "性別": "女",
//     "生年月日": "0410108",
//     "education": "北醫",
//     "title": "啟琮牙醫",
//     "會員身份": "A",
//     "opentime" :"下午5:00-下午9:00",
//     "coordinates": {"latitude": 25.0435576,"longitude": 121.5135226}
//   },
//   {
//     "區別": "大安區",
//     "detailAddress": "台北市大安區通化街146號",
//     "姓名": "游瑞昌",
//     "性別": "男",
//     "生年月日": "0450119",
//     "education": "高醫",
//     "title": "博恩牙醫",
//     "會員身份": "A",
//     "opentime" :"下午5:00-下午9:00",
//     "coordinates": {"latitude": 25.0288452,"longitude": 121.5537257}
//   },
//   {
//     "區別": "大安區",
//     "detailAddress": "台北市大安區仁愛路四段27巷4弄6號1F",
//     "姓名": "陳信宏",
//     "性別": "男",
//     "生年月日": "0440715",
//     "education": "北醫",
//     "title": "名祥牙醫",
//     "會員身份": "A",
//     "opentime" :"下午5:00-下午9:00",
//     "coordinates": {"latitude": 25.038477,"longitude": 121.5448451}
//   },
//   {
//     "區別": "大同區",
//     "detailAddress": "台北市大同區西寧北路15號",
//     "姓名": "許義正",
//     "性別": "男",
//     "生年月日": "0440705",
//     "education": "高醫",
//     "title": "西寧安泰牙醫",
//     "會員身份": "A",
//     "opentime" :"下午5:00-下午9:00",
//     "coordinates": {"latitude": 25.0523974,"longitude": 121.5086842}
//   },
//   {
//     "區別": "信義區",
//     "detailAddress": "台北市信義區大道路13號",
//     "姓名": "俞文祥",
//     "性別": "男",
//     "生年月日": "0431204",
//     "education": "台大",
//     "title": "唐風牙醫",
//     "會員身份": "A",
//     "opentime" :"下午5:00-下午9:00",
//     "coordinates": {"latitude": 25.0425469,"longitude": 121.581694}
//   },
//   {
//     "區別": "士林區",
//     "detailAddress": "台北市士林區天母北路12之1號2樓",
//     "姓名": "徐麗玲",
//     "性別": "女",
//     "生年月日": "0450320",
//     "education": "北醫",
//     "title": "信誼牙醫",
//     "會員身份": "A",
//     "opentime" :"下午5:00-下午9:00",
//     "coordinates": {"latitude": 25.12194,"longitude": 121.526431}
//   },
//   {
//     "區別": "大安區",
//     "detailAddress": "台北市大安區光復南路306號3樓之1",
//     "姓名": "曾應魁",
//     "性別": "男",
//     "生年月日": "0370910",
//     "education": "中山",
//     "title": "曾安牙醫",
//     "會員身份": "A",
//     "opentime" :"下午5:00-下午9:00",
//     "coordinates": {"latitude": 25.0389173,"longitude": 121.5574505}
//   },
//   {
//     "區別": "士林區",
//     "detailAddress": "台北市士林區天母東路8巷27號2樓之1",
//     "姓名": "鄭佑成",
//     "性別": "男",
//     "生年月日": "0470826",
//     "education": "高醫",
//     "title": "佑成牙醫",
//     "會員身份": "A",
//     "opentime" :"下午5:00-下午9:00",
//     "coordinates": {"latitude": 25.1169619,"longitude": 121.5320309}
//   },
//   {
//     "區別": "內湖區",
//     "detailAddress": "台北市內湖區麗山街348巷11號",
//     "姓名": "侯旭峰",
//     "性別": "男",
//     "生年月日": "0451204",
//     "education": "中山",
//     "title": "一峰牙醫",
//     "會員身份": "A",
//     "opentime" :"下午5:00-下午9:00",
//     "coordinates": {"latitude": 25.0819898,"longitude": 121.5733696}
//   },